[
  {
    "id": "seoul-11110-0",
    "name": "사직제2구역 도시환경정비사업 조합",
    "sido": "서울",
    "sigungu": "종로구",
    "projectType": "재개발",
    "stage": "사업시행인가",
    "lat": 37.573667787777694,
    "lng": 126.96633589453909,
    "representativeAddress": "서울 종로구 사직동 311-10",
    "representativeComplex": null,
    "dataAsOf": "2026-06-05",
    "source": "정보몽땅(cleanup.seoul.go.kr)",
    "transactions": [],
    "geocoded": true
  },
  {
    "id": "seoul-11110-1",
    "name": "신영제1구역 주택재개발정비사업조합",
    "sido": "서울",
    "sigungu": "종로구",
    "projectType": "재개발",
    "stage": "이주·철거",
    "lat": 37.599989822404766,
    "lng": 126.9625165652796,
    "representativeAddress": "서울 종로구 신영동 158-2",
    "representativeComplex": null,
    "dataAsOf": "2026-06-05",
    "source": "정보몽땅(cleanup.seoul.go.kr)",
    "transactions": [],
    "geocoded": true
  },
  {
    "id": "seoul-11140-2",
    "name": "신당10구역주택재개발정비사업조합",
    "sido": "서울",
    "sigungu": "중구",
    "projectType": "재개발",
    "stage": "조합설립인가",
    "lat": 37.56427071260272,
    "lng": 127.01216913979769,
    "representativeAddress": "서울 중구 신당동 236-100",
    "representativeComplex": null,
    "dataAsOf": "2026-06-05",
    "source": "정보몽땅(cleanup.seoul.go.kr)",
    "transactions": [],
    "geocoded": true
  },
  {
    "id": "seoul-11140-3",
    "name": "신당제8구역 재개발정비사업조합",
    "sido": "서울",
    "sigungu": "중구",
    "projectType": "재개발",
    "stage": "관리처분인가",
    "lat": 37.55947623912863,
    "lng": 127.01479506678652,
    "representativeAddress": "서울 중구 신당동 321-1",
    "representativeComplex": null,
    "dataAsOf": "2026-06-05",
    "source": "정보몽땅(cleanup.seoul.go.kr)",
    "transactions": [],
    "geocoded": true
  },
  {
    "id": "seoul-11140-4",
    "name": "신당제9구역 주택재개발정비사업조합",
    "sido": "서울",
    "sigungu": "중구",
    "projectType": "재개발",
    "stage": "조합설립인가",
    "lat": 37.5501283097502,
    "lng": 127.00652276829237,
    "representativeAddress": "서울 중구 신당동 432-1008",
    "representativeComplex": null,
    "dataAsOf": "2026-06-05",
    "source": "정보몽땅(cleanup.seoul.go.kr)",
    "transactions": [],
    "geocoded": true
  },
  {
    "id": "seoul-11140-5",
    "name": "중림동 398번지 일대 재개발정비사업조합",
    "sido": "서울",
    "sigungu": "중구",
    "projectType": "재개발",
    "stage": "조합설립인가",
    "lat": 37.56046405577515,
    "lng": 126.96781529226737,
    "representativeAddress": "서울 중구 중림동 398",
    "representativeComplex": null,
    "dataAsOf": "2026-06-05",
    "source": "정보몽땅(cleanup.seoul.go.kr)",
    "transactions": [],
    "geocoded": true
  },
  {
    "id": "seoul-11170-6",
    "name": "남영동 업무지구 제2구역 도시정비형 재개발사업 조합",
    "sido": "서울",
    "sigungu": "용산구",
    "projectType": "재개발",
    "stage": "조합설립인가",
    "lat": 37.54275654380628,
    "lng": 126.97200290060229,
    "representativeAddress": "서울 용산구 갈월동 92",
    "representativeComplex": null,
    "dataAsOf": "2026-06-05",
    "source": "정보몽땅(cleanup.seoul.go.kr)",
    "transactions": [],
    "geocoded": true
  },
  {
    "id": "seoul-11170-7",
    "name": "한남5재정비촉진구역 주택재개발정비사업 조합",
    "sido": "서울",
    "sigungu": "용산구",
    "projectType": "재개발",
    "stage": "조합설립인가",
    "lat": 37.522469072752884,
    "lng": 126.99623725349312,
    "representativeAddress": "서울 용산구 동빙고동 60",
    "representativeComplex": null,
    "dataAsOf": "2026-06-05",
    "source": "정보몽땅(cleanup.seoul.go.kr)",
    "transactions": [],
    "geocoded": true
  },
  {
    "id": "seoul-11170-8",
    "name": "한남4재정비촉진구역 주택재개발정비사업 조합",
    "sido": "서울",
    "sigungu": "용산구",
    "projectType": "재개발",
    "stage": "사업시행인가",
    "lat": 37.5268068910203,
    "lng": 126.99821786888981,
    "representativeAddress": "서울 용산구 보광동 360",
    "representativeComplex": null,
    "dataAsOf": "2026-06-05",
    "source": "정보몽땅(cleanup.seoul.go.kr)",
    "transactions": [],
    "geocoded": true
  },
  {
    "id": "seoul-11170-9",
    "name": "한남2재정비촉진구역 주택재개발정비사업 조합",
    "sido": "서울",
    "sigungu": "용산구",
    "projectType": "재개발",
    "stage": "관리처분인가",
    "lat": 37.531290394413105,
    "lng": 126.99711219627386,
    "representativeAddress": "서울 용산구 보광동 272-3",
    "representativeComplex": null,
    "dataAsOf": "2026-06-05",
    "source": "정보몽땅(cleanup.seoul.go.kr)",
    "transactions": [],
    "geocoded": true
  },
  {
    "id": "seoul-11170-10",
    "name": "신동아아파트재건축정비사업조합",
    "sido": "서울",
    "sigungu": "용산구",
    "projectType": "재건축",
    "stage": "조합설립인가",
    "lat": 37.51802612953167,
    "lng": 126.98758044830478,
    "representativeAddress": "서울 용산구 서빙고동 241-21",
    "representativeComplex": "신동아",
    "dataAsOf": "2026-06-05",
    "source": "정보몽땅(cleanup.seoul.go.kr)",
    "transactions": [],
    "geocoded": true
  },
  {
    "id": "seoul-11170-11",
    "name": "산호아파트 주택재건축 정비사업조합",
    "sido": "서울",
    "sigungu": "용산구",
    "projectType": "재건축",
    "stage": "사업시행인가",
    "lat": 37.53274873589357,
    "lng": 126.95055071413961,
    "representativeAddress": "서울 용산구 원효로4가 118-16",
    "representativeComplex": "산호",
    "dataAsOf": "2026-06-05",
    "source": "정보몽땅(cleanup.seoul.go.kr)",
    "transactions": [],
    "geocoded": true
  },
  {
    "id": "seoul-11170-12",
    "name": "강변강서아파트 주택재건축 정비사업조합",
    "sido": "서울",
    "sigungu": "용산구",
    "projectType": "재건축",
    "stage": "조합설립인가",
    "lat": 37.52351234683344,
    "lng": 126.95928111242088,
    "representativeAddress": "서울 용산구 이촌동 193-3",
    "representativeComplex": "강변강서",
    "dataAsOf": "2026-06-05",
    "source": "정보몽땅(cleanup.seoul.go.kr)",
    "transactions": [],
    "geocoded": true
  },
  {
    "id": "seoul-11170-13",
    "name": "왕궁아파트 주택재건축 정비사업조합",
    "sido": "서울",
    "sigungu": "용산구",
    "projectType": "재건축",
    "stage": "조합설립인가",
    "lat": 37.517151828004394,
    "lng": 126.97824975879008,
    "representativeAddress": "서울 용산구 이촌동 300-11",
    "representativeComplex": "왕궁",
    "dataAsOf": "2026-06-05",
    "source": "정보몽땅(cleanup.seoul.go.kr)",
    "transactions": [],
    "geocoded": true
  },
  {
    "id": "seoul-11170-14",
    "name": "한강맨션아파트 주택재건축 조합",
    "sido": "서울",
    "sigungu": "용산구",
    "projectType": "재건축",
    "stage": "관리처분인가",
    "lat": 37.51933302457112,
    "lng": 126.9750177956202,
    "representativeAddress": "서울 용산구 이촌동 300-23",
    "representativeComplex": "한강맨션",
    "dataAsOf": "2026-06-05",
    "source": "정보몽땅(cleanup.seoul.go.kr)",
    "transactions": [],
    "geocoded": true
  },
  {
    "id": "seoul-11170-15",
    "name": "한강삼익아파트 주택재건축정비사업 조합",
    "sido": "서울",
    "sigungu": "용산구",
    "projectType": "재건축",
    "stage": "사업시행인가",
    "lat": 37.51853788785034,
    "lng": 126.97607648741408,
    "representativeAddress": "서울 용산구 이촌동 300-301",
    "representativeComplex": "한강삼익",
    "dataAsOf": "2026-06-05",
    "source": "정보몽땅(cleanup.seoul.go.kr)",
    "transactions": [],
    "geocoded": true
  },
  {
    "id": "seoul-11170-16",
    "name": "청파제1구역 재개발정비사업조합",
    "sido": "서울",
    "sigungu": "용산구",
    "projectType": "재개발",
    "stage": "조합설립인가",
    "lat": 37.546851134138976,
    "lng": 126.9687549772197,
    "representativeAddress": "서울 용산구 청파동2가 11-1",
    "representativeComplex": null,
    "dataAsOf": "2026-06-05",
    "source": "정보몽땅(cleanup.seoul.go.kr)",
    "transactions": [],
    "geocoded": true
  },
  {
    "id": "seoul-11170-17",
    "name": "한강로구역 도시환경정비사업조합",
    "sido": "서울",
    "sigungu": "용산구",
    "projectType": "재개발",
    "stage": "조합설립인가",
    "lat": 37.53402295795246,
    "lng": 126.97416946393011,
    "representativeAddress": "서울 용산구 한강로1가 158",
    "representativeComplex": null,
    "dataAsOf": "2026-06-05",
    "source": "정보몽땅(cleanup.seoul.go.kr)",
    "transactions": [],
    "geocoded": true
  },
  {
    "id": "seoul-11170-18",
    "name": "신용산역북측 제1구역 도시환경정비사업조합",
    "sido": "서울",
    "sigungu": "용산구",
    "projectType": "재개발",
    "stage": "사업시행인가",
    "lat": 37.53298319181268,
    "lng": 126.97012703715907,
    "representativeAddress": "서울 용산구 한강로2가 2-116",
    "representativeComplex": null,
    "dataAsOf": "2026-06-05",
    "source": "정보몽땅(cleanup.seoul.go.kr)",
    "transactions": [],
    "geocoded": true
  },
  {
    "id": "seoul-11170-19",
    "name": "신용산역북측제2구역 도시정비형재개발정비사업조합",
    "sido": "서울",
    "sigungu": "용산구",
    "projectType": "재개발",
    "stage": "사업시행인가",
    "lat": 37.53106165063261,
    "lng": 126.96862766165712,
    "representativeAddress": "서울 용산구 한강로2가 2-138",
    "representativeComplex": null,
    "dataAsOf": "2026-06-05",
    "source": "정보몽땅(cleanup.seoul.go.kr)",
    "transactions": [],
    "geocoded": true
  },
  {
    "id": "seoul-11170-20",
    "name": "정비창전면 제3구역 도시정비형 재개발 정비사업 조합",
    "sido": "서울",
    "sigungu": "용산구",
    "projectType": "재개발",
    "stage": "조합설립인가",
    "lat": 37.523779464191634,
    "lng": 126.96216064537778,
    "representativeAddress": "서울 용산구 한강로3가 40-19",
    "representativeComplex": null,
    "dataAsOf": "2026-06-05",
    "source": "정보몽땅(cleanup.seoul.go.kr)",
    "transactions": [],
    "geocoded": true
  },
  {
    "id": "seoul-11170-21",
    "name": "정비창전면 제1구역 재개발 정비사업조합",
    "sido": "서울",
    "sigungu": "용산구",
    "projectType": "재개발",
    "stage": "조합설립인가",
    "lat": 37.5254302907081,
    "lng": 126.96292290795995,
    "representativeAddress": "서울 용산구 한강로3가 40-641",
    "representativeComplex": null,
    "dataAsOf": "2026-06-05",
    "source": "정보몽땅(cleanup.seoul.go.kr)",
    "transactions": [],
    "geocoded": true
  },
  {
    "id": "seoul-11170-22",
    "name": "한양철우아파트 주택재건축 정비사업조합",
    "sido": "서울",
    "sigungu": "용산구",
    "projectType": "재건축",
    "stage": "조합설립인가",
    "lat": 37.523549725341596,
    "lng": 126.96910862431832,
    "representativeAddress": "서울 용산구 한강로3가 65-500",
    "representativeComplex": "한양철우",
    "dataAsOf": "2026-06-05",
    "source": "정보몽땅(cleanup.seoul.go.kr)",
    "transactions": [],
    "geocoded": true
  },
  {
    "id": "seoul-11170-23",
    "name": "한남 제3재정비촉진구역 주택재개발정비사업 조합",
    "sido": "서울",
    "sigungu": "용산구",
    "projectType": "재개발",
    "stage": "이주·철거",
    "lat": 37.53445946209294,
    "lng": 126.99984711808804,
    "representativeAddress": "서울 용산구 한남동 686",
    "representativeComplex": null,
    "dataAsOf": "2026-06-05",
    "source": "정보몽땅(cleanup.seoul.go.kr)",
    "transactions": [],
    "geocoded": true
  },
  {
    "id": "seoul-11200-24",
    "name": "금호제16구역주택재개발정비사업조합",
    "sido": "서울",
    "sigungu": "성동구",
    "projectType": "재개발",
    "stage": "관리처분인가",
    "lat": 37.55142286056496,
    "lng": 127.01811956095437,
    "representativeAddress": "서울 성동구 금호동2가 501-31",
    "representativeComplex": null,
    "dataAsOf": "2026-06-05",
    "source": "정보몽땅(cleanup.seoul.go.kr)",
    "transactions": [],
    "geocoded": true
  },
  {
    "id": "seoul-11200-25",
    "name": "금호21구역 주택재개발정비사업",
    "sido": "서울",
    "sigungu": "성동구",
    "projectType": "재개발",
    "stage": "조합설립인가",
    "lat": 37.55035249319988,
    "lng": 127.02439158237694,
    "representativeAddress": "서울 성동구 금호동3가 1",
    "representativeComplex": null,
    "dataAsOf": "2026-06-05",
    "source": "정보몽땅(cleanup.seoul.go.kr)",
    "transactions": [],
    "geocoded": true
  },
  {
    "id": "seoul-11200-26",
    "name": "마장세림아파트 주택재건축사업",
    "sido": "서울",
    "sigungu": "성동구",
    "projectType": "재건축",
    "stage": "조합설립인가",
    "lat": 37.564977178679655,
    "lng": 127.04493346186192,
    "representativeAddress": "서울 성동구 마장동 784",
    "representativeComplex": "마장세림",
    "dataAsOf": "2026-06-05",
    "source": "정보몽땅(cleanup.seoul.go.kr)",
    "transactions": [],
    "geocoded": true
  },
  {
    "id": "seoul-11200-27",
    "name": "성수제1구역주택재건축정비사업조합",
    "sido": "서울",
    "sigungu": "성동구",
    "projectType": "재건축",
    "stage": "조합설립인가",
    "lat": 37.54969326522519,
    "lng": 127.0454208010209,
    "representativeAddress": "서울 성동구 성수동1가 656-1267",
    "representativeComplex": "성수제1구역",
    "dataAsOf": "2026-06-05",
    "source": "정보몽땅(cleanup.seoul.go.kr)",
    "transactions": [],
    "geocoded": true
  },
  {
    "id": "seoul-11200-28",
    "name": "성수전략정비구역 제1 주택정비형 재개발정비사업조합",
    "sido": "서울",
    "sigungu": "성동구",
    "projectType": "재개발",
    "stage": "조합설립인가",
    "lat": 37.53989550021201,
    "lng": 127.04923496685412,
    "representativeAddress": "서울 성동구 성수동1가 72-10",
    "representativeComplex": null,
    "dataAsOf": "2026-06-05",
    "source": "정보몽땅(cleanup.seoul.go.kr)",
    "transactions": [],
    "geocoded": true
  },
  {
    "id": "seoul-11200-29",
    "name": "성수전략정비구역 제4지구 주택재개발정비사업조합",
    "sido": "서울",
    "sigungu": "성동구",
    "projectType": "재개발",
    "stage": "조합설립인가",
    "lat": 37.53626442123337,
    "lng": 127.05832067694925,
    "representativeAddress": "서울 성동구 성수동2가 219-4",
    "representativeComplex": null,
    "dataAsOf": "2026-06-05",
    "source": "정보몽땅(cleanup.seoul.go.kr)",
    "transactions": [],
    "geocoded": true
  },
  {
    "id": "seoul-11200-30",
    "name": "성수전략정비구역 제2 주택정비형 재개발정비사업조합",
    "sido": "서울",
    "sigungu": "성동구",
    "projectType": "재개발",
    "stage": "조합설립인가",
    "lat": 37.53771986665137,
    "lng": 127.05275596943792,
    "representativeAddress": "서울 성동구 성수동2가 506",
    "representativeComplex": null,
    "dataAsOf": "2026-06-05",
    "source": "정보몽땅(cleanup.seoul.go.kr)",
    "transactions": [],
    "geocoded": true
  },
  {
    "id": "seoul-11200-31",
    "name": "성수전략정비구역 제3 주택정비형 재개발정비사업조합",
    "sido": "서울",
    "sigungu": "성동구",
    "projectType": "재개발",
    "stage": "조합설립인가",
    "lat": 37.537154159549985,
    "lng": 127.05678406175497,
    "representativeAddress": "서울 성동구 성수동2가 572-7",
    "representativeComplex": null,
    "dataAsOf": "2026-06-05",
    "source": "정보몽땅(cleanup.seoul.go.kr)",
    "transactions": [],
    "geocoded": true
  },
  {
    "id": "seoul-11200-32",
    "name": "한남하이츠아파트 주택재건축정비사업조합",
    "sido": "서울",
    "sigungu": "성동구",
    "projectType": "재건축",
    "stage": "사업시행인가",
    "lat": 37.53951524375235,
    "lng": 127.01433171733659,
    "representativeAddress": "서울 성동구 옥수동 220-1",
    "representativeComplex": "한남하이츠",
    "dataAsOf": "2026-06-05",
    "source": "정보몽땅(cleanup.seoul.go.kr)",
    "transactions": [],
    "geocoded": true
  },
  {
    "id": "seoul-11200-33",
    "name": "장안평 중고차매매센터 도시정비형 재개발정비사업조합",
    "sido": "서울",
    "sigungu": "성동구",
    "projectType": "재개발",
    "stage": "조합설립인가",
    "lat": 37.56021221718872,
    "lng": 127.06623911778468,
    "representativeAddress": "서울 성동구 용답동 234",
    "representativeComplex": null,
    "dataAsOf": "2026-06-05",
    "source": "정보몽땅(cleanup.seoul.go.kr)",
    "transactions": [],
    "geocoded": true
  },
  {
    "id": "seoul-11200-34",
    "name": "응봉1 주택재건축정비사업 조합",
    "sido": "서울",
    "sigungu": "성동구",
    "projectType": "재건축",
    "stage": "관리처분인가",
    "lat": 37.5490889280146,
    "lng": 127.03145386761703,
    "representativeAddress": "서울 성동구 응봉동 193-162",
    "representativeComplex": "응봉1",
    "dataAsOf": "2026-06-05",
    "source": "정보몽땅(cleanup.seoul.go.kr)",
    "transactions": [],
    "geocoded": true
  },
  {
    "id": "seoul-11215-35",
    "name": "자양제7구역 주택재건축정비사업 조합",
    "sido": "서울",
    "sigungu": "광진구",
    "projectType": "재건축",
    "stage": "조합설립인가",
    "lat": 37.53227719332391,
    "lng": 127.0734675015863,
    "representativeAddress": "서울 광진구 자양동 464-40",
    "representativeComplex": "자양제7구역",
    "dataAsOf": "2026-06-05",
    "source": "정보몽땅(cleanup.seoul.go.kr)",
    "transactions": [],
    "geocoded": true
  },
  {
    "id": "seoul-11215-36",
    "name": "신향빌라 재건축사업",
    "sido": "서울",
    "sigungu": "광진구",
    "projectType": "재건축",
    "stage": "조합설립인가",
    "lat": 37.56623538127677,
    "lng": 127.08744673980289,
    "representativeAddress": "서울 광진구 중곡동 18-24",
    "representativeComplex": "신향빌라",
    "dataAsOf": "2026-06-05",
    "source": "정보몽땅(cleanup.seoul.go.kr)",
    "transactions": [],
    "geocoded": true
  },
  {
    "id": "seoul-11215-37",
    "name": "중곡아파트 주택재건축정비사업조합",
    "sido": "서울",
    "sigungu": "광진구",
    "projectType": "재건축",
    "stage": "조합설립인가",
    "lat": 37.5668405170168,
    "lng": 127.07844856562569,
    "representativeAddress": "서울 광진구 중곡동 190-26",
    "representativeComplex": "중곡",
    "dataAsOf": "2026-06-05",
    "source": "정보몽땅(cleanup.seoul.go.kr)",
    "transactions": [],
    "geocoded": true
  },
  {
    "id": "seoul-11230-38",
    "name": "답십리자동차부품상가 도시정비형 재개발정비사업조합",
    "sido": "서울",
    "sigungu": "동대문구",
    "projectType": "재개발",
    "stage": "사업시행인가",
    "lat": 37.565999542586916,
    "lng": 127.05980472596204,
    "representativeAddress": "서울 동대문구 답십리동 952",
    "representativeComplex": null,
    "dataAsOf": "2026-06-05",
    "source": "정보몽땅(cleanup.seoul.go.kr)",
    "transactions": [],
    "geocoded": true
  },
  {
    "id": "seoul-11230-39",
    "name": "신설제1구역 공공재개발정비사업",
    "sido": "서울",
    "sigungu": "동대문구",
    "projectType": "재개발",
    "stage": "사업시행인가",
    "lat": 37.576141354413735,
    "lng": 127.02706811603434,
    "representativeAddress": "서울 동대문구 신설동 92-5",
    "representativeComplex": null,
    "dataAsOf": "2026-06-05",
    "source": "정보몽땅(cleanup.seoul.go.kr)",
    "transactions": [],
    "geocoded": true
  },
  {
    "id": "seoul-11230-40",
    "name": "용두1구역(6지구) 공공재개발사업",
    "sido": "서울",
    "sigungu": "동대문구",
    "projectType": "재개발",
    "stage": "조합설립인가",
    "lat": 37.57845528245639,
    "lng": 127.04044566301323,
    "representativeAddress": "서울 동대문구 용두동 14-1",
    "representativeComplex": null,
    "dataAsOf": "2026-06-05",
    "source": "정보몽땅(cleanup.seoul.go.kr)",
    "transactions": [],
    "geocoded": true
  },
  {
    "id": "seoul-11230-41",
    "name": "용두1도시환경정비구역 제5지구 재개발정비사업조합",
    "sido": "서울",
    "sigungu": "동대문구",
    "projectType": "재개발",
    "stage": "조합설립인가",
    "lat": 37.57832751245636,
    "lng": 127.04024551961112,
    "representativeAddress": "서울 동대문구 용두동 23-1",
    "representativeComplex": null,
    "dataAsOf": "2026-06-05",
    "source": "정보몽땅(cleanup.seoul.go.kr)",
    "transactions": [],
    "geocoded": true
  },
  {
    "id": "seoul-11230-42",
    "name": "용두1구역(4지구) 도시정비형재개발사업(지정개발자방식)",
    "sido": "서울",
    "sigungu": "동대문구",
    "projectType": "재개발",
    "stage": "사업시행인가",
    "lat": 37.57707860355839,
    "lng": 127.03926848980144,
    "representativeAddress": "서울 동대문구 용두동 26-3",
    "representativeComplex": null,
    "dataAsOf": "2026-06-05",
    "source": "정보몽땅(cleanup.seoul.go.kr)",
    "transactions": [],
    "geocoded": true
  },
  {
    "id": "seoul-11230-43",
    "name": "이문4재정비촉진구역 주택재개발정비사업조합",
    "sido": "서울",
    "sigungu": "동대문구",
    "projectType": "재개발",
    "stage": "관리처분인가",
    "lat": 37.59676627548252,
    "lng": 127.06649570847634,
    "representativeAddress": "서울 동대문구 이문동 86-1",
    "representativeComplex": null,
    "dataAsOf": "2026-06-05",
    "source": "정보몽땅(cleanup.seoul.go.kr)",
    "transactions": [],
    "geocoded": true
  },
  {
    "id": "seoul-11230-44",
    "name": "장안동 현대아파트 재건축정비사업조합",
    "sido": "서울",
    "sigungu": "동대문구",
    "projectType": "재건축",
    "stage": "사업시행인가",
    "lat": 37.581148488851554,
    "lng": 127.06912073021238,
    "representativeAddress": "서울 동대문구 장안동 95-1",
    "representativeComplex": "장안동현대",
    "dataAsOf": "2026-06-05",
    "source": "정보몽땅(cleanup.seoul.go.kr)",
    "transactions": [],
    "geocoded": true
  },
  {
    "id": "seoul-11230-45",
    "name": "전농제9구역 공공재개발정비사업 주민대표회의",
    "sido": "서울",
    "sigungu": "동대문구",
    "projectType": "재개발",
    "stage": "조합설립인가",
    "lat": 37.58355925959735,
    "lng": 127.0514079724702,
    "representativeAddress": "서울 동대문구 전농동 103-236",
    "representativeComplex": null,
    "dataAsOf": "2026-06-05",
    "source": "정보몽땅(cleanup.seoul.go.kr)",
    "transactions": [],
    "geocoded": true
  },
  {
    "id": "seoul-11230-46",
    "name": "전농8구역주택재개발정비사업조합",
    "sido": "서울",
    "sigungu": "동대문구",
    "projectType": "재개발",
    "stage": "조합설립인가",
    "lat": 37.57861194700034,
    "lng": 127.05613609212791,
    "representativeAddress": "서울 동대문구 전농동 204",
    "representativeComplex": null,
    "dataAsOf": "2026-06-05",
    "source": "정보몽땅(cleanup.seoul.go.kr)",
    "transactions": [],
    "geocoded": true
  },
  {
    "id": "seoul-11230-47",
    "name": "전농도시환경정비사업조합",
    "sido": "서울",
    "sigungu": "동대문구",
    "projectType": "재개발",
    "stage": "사업시행인가",
    "lat": 37.577051473364214,
    "lng": 127.04776460117381,
    "representativeAddress": "서울 동대문구 전농동 494",
    "representativeComplex": null,
    "dataAsOf": "2026-06-05",
    "source": "정보몽땅(cleanup.seoul.go.kr)",
    "transactions": [],
    "geocoded": true
  },
  {
    "id": "seoul-11230-48",
    "name": "전농제12구역 재개발정비사업조합",
    "sido": "서울",
    "sigungu": "동대문구",
    "projectType": "재개발",
    "stage": "조합설립인가",
    "lat": 37.57666298930262,
    "lng": 127.04592189080081,
    "representativeAddress": "서울 동대문구 전농동 643",
    "representativeComplex": null,
    "dataAsOf": "2026-06-05",
    "source": "정보몽땅(cleanup.seoul.go.kr)",
    "transactions": [],
    "geocoded": true
  },
  {
    "id": "seoul-11230-49",
    "name": "제기제6구역주택재개발정비사업조합",
    "sido": "서울",
    "sigungu": "동대문구",
    "projectType": "재개발",
    "stage": "관리처분인가",
    "lat": 37.58733917175441,
    "lng": 127.0393218548,
    "representativeAddress": "서울 동대문구 제기동 120-104",
    "representativeComplex": null,
    "dataAsOf": "2026-06-05",
    "source": "정보몽땅(cleanup.seoul.go.kr)",
    "transactions": [],
    "geocoded": true
  },
  {
    "id": "seoul-11230-50",
    "name": "제기제4구역 주택재개발정비사업조합",
    "sido": "서울",
    "sigungu": "동대문구",
    "projectType": "재개발",
    "stage": "이주·철거",
    "lat": 37.58508539857033,
    "lng": 127.0420484846874,
    "representativeAddress": "서울 동대문구 제기동 288",
    "representativeComplex": null,
    "dataAsOf": "2026-06-05",
    "source": "정보몽땅(cleanup.seoul.go.kr)",
    "transactions": [],
    "geocoded": true
  },
  {
    "id": "seoul-11230-51",
    "name": "청량리제6구역주택재개발정비사업조합",
    "sido": "서울",
    "sigungu": "동대문구",
    "projectType": "재개발",
    "stage": "사업시행인가",
    "lat": 37.5896560419842,
    "lng": 127.04298876672246,
    "representativeAddress": "서울 동대문구 청량리동 205",
    "representativeComplex": null,
    "dataAsOf": "2026-06-05",
    "source": "정보몽땅(cleanup.seoul.go.kr)",
    "transactions": [],
    "geocoded": true
  },
  {
    "id": "seoul-11230-52",
    "name": "청량리미주아파트 주택재건축정비사업",
    "sido": "서울",
    "sigungu": "동대문구",
    "projectType": "재건축",
    "stage": "조합설립인가",
    "lat": 37.584001920253556,
    "lng": 127.04676602733603,
    "representativeAddress": "서울 동대문구 청량리동 235-1",
    "representativeComplex": "청량리미주",
    "dataAsOf": "2026-06-05",
    "source": "정보몽땅(cleanup.seoul.go.kr)",
    "transactions": [],
    "geocoded": true
  },
  {
    "id": "seoul-11230-53",
    "name": "청량리제8구역 주택재개발정비사업조합",
    "sido": "서울",
    "sigungu": "동대문구",
    "projectType": "재개발",
    "stage": "관리처분인가",
    "lat": 37.58544116750191,
    "lng": 127.0445473882713,
    "representativeAddress": "서울 동대문구 청량리동 435",
    "representativeComplex": null,
    "dataAsOf": "2026-06-05",
    "source": "정보몽땅(cleanup.seoul.go.kr)",
    "transactions": [],
    "geocoded": true
  },
  {
    "id": "seoul-11260-54",
    "name": "망우1구역 공공재건축정비사업조합",
    "sido": "서울",
    "sigungu": "중랑구",
    "projectType": "재건축",
    "stage": "조합설립인가",
    "lat": 37.60272136866178,
    "lng": 127.10635335299443,
    "representativeAddress": "서울 중랑구 망우동 178-1",
    "representativeComplex": "망우1구역공공",
    "dataAsOf": "2026-06-05",
    "source": "정보몽땅(cleanup.seoul.go.kr)",
    "transactions": [],
    "geocoded": true
  },
  {
    "id": "seoul-11260-55",
    "name": "면목7구역 주택정비형 재개발사업",
    "sido": "서울",
    "sigungu": "중랑구",
    "projectType": "재개발",
    "stage": "조합설립인가",
    "lat": 37.587096492577786,
    "lng": 127.09288633491497,
    "representativeAddress": "서울 중랑구 면목동 69-14",
    "representativeComplex": null,
    "dataAsOf": "2026-06-05",
    "source": "정보몽땅(cleanup.seoul.go.kr)",
    "transactions": [],
    "geocoded": true
  },
  {
    "id": "seoul-11260-56",
    "name": "면목9구역 공공재개발정비사업",
    "sido": "서울",
    "sigungu": "중랑구",
    "projectType": "재개발",
    "stage": "조합설립인가",
    "lat": 37.57918788365265,
    "lng": 127.0929234632265,
    "representativeAddress": "서울 중랑구 면목동 527",
    "representativeComplex": null,
    "dataAsOf": "2026-06-05",
    "source": "정보몽땅(cleanup.seoul.go.kr)",
    "transactions": [],
    "geocoded": true
  },
  {
    "id": "seoul-11260-57",
    "name": "상봉7재정비촉진구역 도시환경정비사업조합",
    "sido": "서울",
    "sigungu": "중랑구",
    "projectType": "재개발",
    "stage": "사업시행인가",
    "lat": 37.59585666238762,
    "lng": 127.09037200592414,
    "representativeAddress": "서울 중랑구 상봉동 88",
    "representativeComplex": null,
    "dataAsOf": "2026-06-05",
    "source": "정보몽땅(cleanup.seoul.go.kr)",
    "transactions": [],
    "geocoded": true
  },
  {
    "id": "seoul-11260-58",
    "name": "신일빌라 소규모재건축정비사업조합",
    "sido": "서울",
    "sigungu": "중랑구",
    "projectType": "재건축",
    "stage": "이주·철거",
    "lat": 37.60279885954021,
    "lng": 127.09743218830121,
    "representativeAddress": "서울 중랑구 신내동 482-1",
    "representativeComplex": "신일빌라소규모",
    "dataAsOf": "2026-06-05",
    "source": "정보몽땅(cleanup.seoul.go.kr)",
    "transactions": [],
    "geocoded": true
  },
  {
    "id": "seoul-11260-59",
    "name": "중화5구역 공공재개발정비사업",
    "sido": "서울",
    "sigungu": "중랑구",
    "projectType": "재개발",
    "stage": "조합설립인가",
    "lat": 37.60160508106574,
    "lng": 127.08499227768024,
    "representativeAddress": "서울 중랑구 중화동 122",
    "representativeComplex": null,
    "dataAsOf": "2026-06-05",
    "source": "정보몽땅(cleanup.seoul.go.kr)",
    "transactions": [],
    "geocoded": true
  },
  {
    "id": "seoul-11290-60",
    "name": "신길음1구역 재개발정비사업 조합",
    "sido": "서울",
    "sigungu": "성북구",
    "projectType": "재개발",
    "stage": "조합설립인가",
    "lat": 37.61195125277642,
    "lng": 127.02992998772731,
    "representativeAddress": "서울 성북구 길음동 31-1",
    "representativeComplex": null,
    "dataAsOf": "2026-06-05",
    "source": "정보몽땅(cleanup.seoul.go.kr)",
    "transactions": [],
    "geocoded": true
  },
  {
    "id": "seoul-11290-61",
    "name": "돈암6구역 주택재개발정비사업조합",
    "sido": "서울",
    "sigungu": "성북구",
    "projectType": "재개발",
    "stage": "사업시행인가",
    "lat": 37.59925140166513,
    "lng": 127.02089350062437,
    "representativeAddress": "서울 성북구 돈암동 48-29",
    "representativeComplex": null,
    "dataAsOf": "2026-06-05",
    "source": "정보몽땅(cleanup.seoul.go.kr)",
    "transactions": [],
    "geocoded": true
  },
  {
    "id": "seoul-11290-62",
    "name": "동선제2구역 주택재개발정비사업조합",
    "sido": "서울",
    "sigungu": "성북구",
    "projectType": "재개발",
    "stage": "관리처분인가",
    "lat": 37.596333023846455,
    "lng": 127.01998774142686,
    "representativeAddress": "서울 성북구 동선동4가 304-2",
    "representativeComplex": null,
    "dataAsOf": "2026-06-05",
    "source": "정보몽땅(cleanup.seoul.go.kr)",
    "transactions": [],
    "geocoded": true
  },
  {
    "id": "seoul-11290-63",
    "name": "동소문제2구역 주택재개발정비사업조합",
    "sido": "서울",
    "sigungu": "성북구",
    "projectType": "재개발",
    "stage": "조합설립인가",
    "lat": 37.5883678321904,
    "lng": 127.00711375147074,
    "representativeAddress": "서울 성북구 동소문동2가 33",
    "representativeComplex": null,
    "dataAsOf": "2026-06-05",
    "source": "정보몽땅(cleanup.seoul.go.kr)",
    "transactions": [],
    "geocoded": true
  },
  {
    "id": "seoul-11290-64",
    "name": "성북1구역 공공재개발 정비사업 주민대표회의",
    "sido": "서울",
    "sigungu": "성북구",
    "projectType": "재개발",
    "stage": "조합설립인가",
    "lat": 37.59103277710978,
    "lng": 127.00521727350505,
    "representativeAddress": "서울 성북구 성북동 179-68",
    "representativeComplex": null,
    "dataAsOf": "2026-06-05",
    "source": "정보몽땅(cleanup.seoul.go.kr)",
    "transactions": [],
    "geocoded": true
  },
  {
    "id": "seoul-11290-65",
    "name": "성북제2구역 주택재개발정비사업 조합",
    "sido": "서울",
    "sigungu": "성북구",
    "projectType": "재개발",
    "stage": "사업시행인가",
    "lat": 37.594093410921374,
    "lng": 126.99135344926754,
    "representativeAddress": "서울 성북구 성북동 226",
    "representativeComplex": null,
    "dataAsOf": "2026-06-05",
    "source": "정보몽땅(cleanup.seoul.go.kr)",
    "transactions": [],
    "geocoded": true
  },
  {
    "id": "seoul-11290-66",
    "name": "안암제1구역 주택재건축정비사업조합",
    "sido": "서울",
    "sigungu": "성북구",
    "projectType": "재건축",
    "stage": "조합설립인가",
    "lat": 37.58240359137808,
    "lng": 127.02510703591443,
    "representativeAddress": "서울 성북구 안암동3가 136-1",
    "representativeComplex": "안암제1구역",
    "dataAsOf": "2026-06-05",
    "source": "정보몽땅(cleanup.seoul.go.kr)",
    "transactions": [],
    "geocoded": true
  },
  {
    "id": "seoul-11290-67",
    "name": "장위10구역 주택재개발정비사업조합",
    "sido": "서울",
    "sigungu": "성북구",
    "projectType": "재개발",
    "stage": "관리처분인가",
    "lat": 37.61229204924848,
    "lng": 127.05301992447482,
    "representativeAddress": "서울 성북구 장위동 68-37",
    "representativeComplex": null,
    "dataAsOf": "2026-06-05",
    "source": "정보몽땅(cleanup.seoul.go.kr)",
    "transactions": [],
    "geocoded": true
  },
  {
    "id": "seoul-11290-68",
    "name": "장위8구역 공공재개발정비사업",
    "sido": "서울",
    "sigungu": "성북구",
    "projectType": "재개발",
    "stage": "조합설립인가",
    "lat": 37.616525801021076,
    "lng": 127.05484826559615,
    "representativeAddress": "서울 성북구 장위동 85",
    "representativeComplex": null,
    "dataAsOf": "2026-06-05",
    "source": "정보몽땅(cleanup.seoul.go.kr)",
    "transactions": [],
    "geocoded": true
  },
  {
    "id": "seoul-11290-69",
    "name": "장위15구역 주택재개발정비사업조합",
    "sido": "서울",
    "sigungu": "성북구",
    "projectType": "재개발",
    "stage": "조합설립인가",
    "lat": 37.61212937633244,
    "lng": 127.04828328699327,
    "representativeAddress": "서울 성북구 장위동 233-42",
    "representativeComplex": null,
    "dataAsOf": "2026-06-05",
    "source": "정보몽땅(cleanup.seoul.go.kr)",
    "transactions": [],
    "geocoded": true
  },
  {
    "id": "seoul-11290-70",
    "name": "장위14구역 주택재개발정비사업조합",
    "sido": "서울",
    "sigungu": "성북구",
    "projectType": "재개발",
    "stage": "조합설립인가",
    "lat": 37.612625310210376,
    "lng": 127.04363248879116,
    "representativeAddress": "서울 성북구 장위동 233-552",
    "representativeComplex": null,
    "dataAsOf": "2026-06-05",
    "source": "정보몽땅(cleanup.seoul.go.kr)",
    "transactions": [],
    "geocoded": true
  },
  {
    "id": "seoul-11290-71",
    "name": "장위9구역 공공재개발사업",
    "sido": "서울",
    "sigungu": "성북구",
    "projectType": "재개발",
    "stage": "조합설립인가",
    "lat": 37.61412673280419,
    "lng": 127.05041789480649,
    "representativeAddress": "서울 성북구 장위동 238-83",
    "representativeComplex": null,
    "dataAsOf": "2026-06-05",
    "source": "정보몽땅(cleanup.seoul.go.kr)",
    "transactions": [],
    "geocoded": true
  },
  {
    "id": "seoul-11290-72",
    "name": "길음5재정비촉진구역 주택재개발정비사업 조합",
    "sido": "서울",
    "sigungu": "성북구",
    "projectType": "재개발",
    "stage": "조합설립인가",
    "lat": 37.6043188648119,
    "lng": 127.0158673887111,
    "representativeAddress": "서울 성북구 정릉동 175",
    "representativeComplex": null,
    "dataAsOf": "2026-06-05",
    "source": "정보몽땅(cleanup.seoul.go.kr)",
    "transactions": [],
    "geocoded": true
  },
  {
    "id": "seoul-11290-73",
    "name": "정릉7 주택재건축정비사업 조합",
    "sido": "서울",
    "sigungu": "성북구",
    "projectType": "재건축",
    "stage": "사업시행인가",
    "lat": 37.60148630816022,
    "lng": 127.00834486371826,
    "representativeAddress": "서울 성북구 정릉동 506-159",
    "representativeComplex": "정릉7",
    "dataAsOf": "2026-06-05",
    "source": "정보몽땅(cleanup.seoul.go.kr)",
    "transactions": [],
    "geocoded": true
  },
  {
    "id": "seoul-11290-74",
    "name": "정릉골구역 주택재개발정비사업조합",
    "sido": "서울",
    "sigungu": "성북구",
    "projectType": "재개발",
    "stage": "관리처분인가",
    "lat": 37.61414972806185,
    "lng": 127.00271499097727,
    "representativeAddress": "서울 성북구 정릉동 757",
    "representativeComplex": null,
    "dataAsOf": "2026-06-05",
    "source": "정보몽땅(cleanup.seoul.go.kr)",
    "transactions": [],
    "geocoded": true
  },
  {
    "id": "seoul-11290-75",
    "name": "신월곡1구역 도시환경정비사업조합",
    "sido": "서울",
    "sigungu": "성북구",
    "projectType": "재개발",
    "stage": "관리처분인가",
    "lat": 37.6055413367107,
    "lng": 127.02895348404255,
    "representativeAddress": "서울 성북구 하월곡동 88-142",
    "representativeComplex": null,
    "dataAsOf": "2026-06-05",
    "source": "정보몽땅(cleanup.seoul.go.kr)",
    "transactions": [],
    "geocoded": true
  },
  {
    "id": "seoul-11305-76",
    "name": "미아제4-1구역 주택재건축정비사업 조합",
    "sido": "서울",
    "sigungu": "강북구",
    "projectType": "재건축",
    "stage": "조합설립인가",
    "lat": 37.615510137829936,
    "lng": 127.03891568219473,
    "representativeAddress": "서울 강북구 미아동 8-373",
    "representativeComplex": "미아제4-1구역",
    "dataAsOf": "2026-06-05",
    "source": "정보몽땅(cleanup.seoul.go.kr)",
    "transactions": [],
    "geocoded": true
  },
  {
    "id": "seoul-11305-77",
    "name": "미아중심재정비촉진지구 강북2재정비촉진구역 도시환경정비사업조합",
    "sido": "서울",
    "sigungu": "강북구",
    "projectType": "재개발",
    "stage": "조합설립인가",
    "lat": 37.610590449158636,
    "lng": 127.03073109779118,
    "representativeAddress": "서울 강북구 미아동 42-8",
    "representativeComplex": null,
    "dataAsOf": "2026-06-05",
    "source": "정보몽땅(cleanup.seoul.go.kr)",
    "transactions": [],
    "geocoded": true
  },
  {
    "id": "seoul-11305-78",
    "name": "미아중심재정비촉진지구 강북3 재정비촉진구역",
    "sido": "서울",
    "sigungu": "강북구",
    "projectType": "재개발",
    "stage": "관리처분인가",
    "lat": 37.611093640924764,
    "lng": 127.03221331176064,
    "representativeAddress": "서울 강북구 미아동 45-32",
    "representativeComplex": null,
    "dataAsOf": "2026-06-05",
    "source": "정보몽땅(cleanup.seoul.go.kr)",
    "transactions": [],
    "geocoded": true
  },
  {
    "id": "seoul-11305-79",
    "name": "강북5구역 공공재개발사업",
    "sido": "서울",
    "sigungu": "강북구",
    "projectType": "재개발",
    "stage": "조합설립인가",
    "lat": 37.61438049174874,
    "lng": 127.02948094726779,
    "representativeAddress": "서울 강북구 미아동 61-79",
    "representativeComplex": null,
    "dataAsOf": "2026-06-05",
    "source": "정보몽땅(cleanup.seoul.go.kr)",
    "transactions": [],
    "geocoded": true
  },
  {
    "id": "seoul-11305-80",
    "name": "미아제9-2구역 주택재건축정비사업 조합",
    "sido": "서울",
    "sigungu": "강북구",
    "projectType": "재건축",
    "stage": "사업시행인가",
    "lat": 37.619286857675995,
    "lng": 127.03042077876833,
    "representativeAddress": "서울 강북구 미아동 137-72",
    "representativeComplex": "미아제9-2구역",
    "dataAsOf": "2026-06-05",
    "source": "정보몽땅(cleanup.seoul.go.kr)",
    "transactions": [],
    "geocoded": true
  },
  {
    "id": "seoul-11305-81",
    "name": "미아2재정비촉진구역 주택재개발정비사업 조합",
    "sido": "서울",
    "sigungu": "강북구",
    "projectType": "재개발",
    "stage": "조합설립인가",
    "lat": 37.617472065001024,
    "lng": 127.02322337001323,
    "representativeAddress": "서울 강북구 미아동 403",
    "representativeComplex": null,
    "dataAsOf": "2026-06-05",
    "source": "정보몽땅(cleanup.seoul.go.kr)",
    "transactions": [],
    "geocoded": true
  },
  {
    "id": "seoul-11305-82",
    "name": "미아제11구역 재개발정비사업조합",
    "sido": "서울",
    "sigungu": "강북구",
    "projectType": "재개발",
    "stage": "조합설립인가",
    "lat": 37.62959636309982,
    "lng": 127.02000424468523,
    "representativeAddress": "서울 강북구 미아동 791-108",
    "representativeComplex": null,
    "dataAsOf": "2026-06-05",
    "source": "정보몽땅(cleanup.seoul.go.kr)",
    "transactions": [],
    "geocoded": true
  },
  {
    "id": "seoul-11305-83",
    "name": "미아4재정비촉진구역 주택재건축정비사업조합",
    "sido": "서울",
    "sigungu": "강북구",
    "projectType": "재건축",
    "stage": "관리처분인가",
    "lat": 37.6118791052494,
    "lng": 127.02281041476695,
    "representativeAddress": "서울 강북구 미아동 1261-376",
    "representativeComplex": "미아4재정비촉진구역",
    "dataAsOf": "2026-06-05",
    "source": "정보몽땅(cleanup.seoul.go.kr)",
    "transactions": [],
    "geocoded": true
  },
  {
    "id": "seoul-11305-84",
    "name": "미아3재정비촉진구역 주택재개발정비사업조합",
    "sido": "서울",
    "sigungu": "강북구",
    "projectType": "재개발",
    "stage": "관리처분인가",
    "lat": 37.61503301320894,
    "lng": 127.02551036339014,
    "representativeAddress": "서울 강북구 미아동 439",
    "representativeComplex": null,
    "dataAsOf": "2026-06-05",
    "source": "정보몽땅(cleanup.seoul.go.kr)",
    "transactions": [],
    "geocoded": true
  },
  {
    "id": "seoul-11320-85",
    "name": "쌍문한양1차아파트 재건축사업",
    "sido": "서울",
    "sigungu": "도봉구",
    "projectType": "재건축",
    "stage": "조합설립인가",
    "lat": 37.64590192611279,
    "lng": 127.03069285230117,
    "representativeAddress": "서울 도봉구 쌍문동 388-33",
    "representativeComplex": "쌍문한양1차",
    "dataAsOf": "2026-06-05",
    "source": "정보몽땅(cleanup.seoul.go.kr)",
    "transactions": [],
    "geocoded": true
  },
  {
    "id": "seoul-11320-86",
    "name": "쌍문3구역 주택정비형재개발사업",
    "sido": "서울",
    "sigungu": "도봉구",
    "projectType": "재개발",
    "stage": "조합설립인가",
    "lat": 37.64603469838852,
    "lng": 127.02634412409708,
    "representativeAddress": "서울 도봉구 쌍문동 724",
    "representativeComplex": null,
    "dataAsOf": "2026-06-05",
    "source": "정보몽땅(cleanup.seoul.go.kr)",
    "transactions": [],
    "geocoded": true
  },
  {
    "id": "seoul-11350-87",
    "name": "상계동 154-3 일대 주택정비형 재개발사업",
    "sido": "서울",
    "sigungu": "노원구",
    "projectType": "재개발",
    "stage": "조합설립인가",
    "lat": 37.624619835371526,
    "lng": 127.06872635910027,
    "representativeAddress": "서울 노원구 공릉동 154-3",
    "representativeComplex": null,
    "dataAsOf": "2026-06-05",
    "source": "정보몽땅(cleanup.seoul.go.kr)",
    "transactions": [],
    "geocoded": false
  },
  {
    "id": "seoul-11350-88",
    "name": "상계3재정비촉진구역 공공재개발정비사업",
    "sido": "서울",
    "sigungu": "노원구",
    "projectType": "재개발",
    "stage": "조합설립인가",
    "lat": 37.670863179167824,
    "lng": 127.08366444991955,
    "representativeAddress": "서울 노원구 상계동 71-183",
    "representativeComplex": null,
    "dataAsOf": "2026-06-05",
    "source": "정보몽땅(cleanup.seoul.go.kr)",
    "transactions": [],
    "geocoded": true
  },
  {
    "id": "seoul-11350-89",
    "name": "상계주공5단지 재건축정비사업",
    "sido": "서울",
    "sigungu": "노원구",
    "projectType": "재건축",
    "stage": "사업시행인가",
    "lat": 37.65279504603286,
    "lng": 127.0649719107058,
    "representativeAddress": "서울 노원구 상계동 721",
    "representativeComplex": "상계주공5단지",
    "dataAsOf": "2026-06-05",
    "source": "정보몽땅(cleanup.seoul.go.kr)",
    "transactions": [],
    "geocoded": true
  },
  {
    "id": "seoul-11350-90",
    "name": "상계5재정비촉진구역 주택재개발정비사업 조합",
    "sido": "서울",
    "sigungu": "노원구",
    "projectType": "재개발",
    "stage": "조합설립인가",
    "lat": 37.667790486443764,
    "lng": 127.07815463565176,
    "representativeAddress": "서울 노원구 상계동 109-43",
    "representativeComplex": null,
    "dataAsOf": "2026-06-05",
    "source": "정보몽땅(cleanup.seoul.go.kr)",
    "transactions": [],
    "geocoded": true
  },
  {
    "id": "seoul-11350-91",
    "name": "상계2재정비촉진구역 주택재개발정비사업 조합",
    "sido": "서울",
    "sigungu": "노원구",
    "projectType": "재개발",
    "stage": "사업시행인가",
    "lat": 37.657785998329516,
    "lng": 127.0629741976615,
    "representativeAddress": "서울 노원구 상계동 자력2구역 17블럭 1롯트",
    "representativeComplex": null,
    "dataAsOf": "2026-06-05",
    "source": "정보몽땅(cleanup.seoul.go.kr)",
    "transactions": [],
    "geocoded": false
  },
  {
    "id": "seoul-11350-92",
    "name": "상계1재정비촉진구역 주택재개발정비사업 조합",
    "sido": "서울",
    "sigungu": "노원구",
    "projectType": "재개발",
    "stage": "관리처분인가",
    "lat": 37.659893947003404,
    "lng": 127.0659918655604,
    "representativeAddress": "서울 노원구 상계동 자력6구역 8블럭 9롯트",
    "representativeComplex": null,
    "dataAsOf": "2026-06-05",
    "source": "정보몽땅(cleanup.seoul.go.kr)",
    "transactions": [],
    "geocoded": false
  },
  {
    "id": "seoul-11350-93",
    "name": "월계동신아파트주택재건축정비사업조합",
    "sido": "서울",
    "sigungu": "노원구",
    "projectType": "재건축",
    "stage": "관리처분인가",
    "lat": 37.617534360634224,
    "lng": 127.06122769114346,
    "representativeAddress": "서울 노원구 월계동 436",
    "representativeComplex": "월계동신",
    "dataAsOf": "2026-06-05",
    "source": "정보몽땅(cleanup.seoul.go.kr)",
    "transactions": [],
    "geocoded": true
  },
  {
    "id": "seoul-11380-94",
    "name": "불광1주택재건축정비사업(신탁방식)",
    "sido": "서울",
    "sigungu": "은평구",
    "projectType": "재건축",
    "stage": "사업시행인가",
    "lat": 37.619865885162284,
    "lng": 126.93254499430631,
    "representativeAddress": "서울 은평구 불광동 19-3",
    "representativeComplex": "불광1",
    "dataAsOf": "2026-06-05",
    "source": "정보몽땅(cleanup.seoul.go.kr)",
    "transactions": [],
    "geocoded": true
  },
  {
    "id": "seoul-11380-95",
    "name": "독바위역세권 도시정비형 재개발사업",
    "sido": "서울",
    "sigungu": "은평구",
    "projectType": "재개발",
    "stage": "사업시행인가",
    "lat": 37.618417208860194,
    "lng": 126.93203472634028,
    "representativeAddress": "서울 은평구 불광동 227-7",
    "representativeComplex": null,
    "dataAsOf": "2026-06-05",
    "source": "정보몽땅(cleanup.seoul.go.kr)",
    "transactions": [],
    "geocoded": true
  },
  {
    "id": "seoul-11380-96",
    "name": "불광제5 주택재개발정비사업 조합",
    "sido": "서울",
    "sigungu": "은평구",
    "projectType": "재개발",
    "stage": "관리처분인가",
    "lat": 37.61700116043659,
    "lng": 126.93190606638123,
    "representativeAddress": "서울 은평구 불광동 238",
    "representativeComplex": null,
    "dataAsOf": "2026-06-05",
    "source": "정보몽땅(cleanup.seoul.go.kr)",
    "transactions": [],
    "geocoded": true
  },
  {
    "id": "seoul-11380-97",
    "name": "불광8 주택정비형 재개발사업",
    "sido": "서울",
    "sigungu": "은평구",
    "projectType": "재개발",
    "stage": "조합설립인가",
    "lat": 37.61186279555111,
    "lng": 126.93257740602058,
    "representativeAddress": "서울 은평구 불광동 600",
    "representativeComplex": null,
    "dataAsOf": "2026-06-05",
    "source": "정보몽땅(cleanup.seoul.go.kr)",
    "transactions": [],
    "geocoded": true
  },
  {
    "id": "seoul-11380-98",
    "name": "수색8재정비촉진구역 주택재개발 정비사업조합",
    "sido": "서울",
    "sigungu": "은평구",
    "projectType": "재개발",
    "stage": "관리처분인가",
    "lat": 37.58366727399672,
    "lng": 126.89909055343213,
    "representativeAddress": "서울 은평구 수색동 16-2",
    "representativeComplex": null,
    "dataAsOf": "2026-06-05",
    "source": "정보몽땅(cleanup.seoul.go.kr)",
    "transactions": [],
    "geocoded": true
  },
  {
    "id": "seoul-11380-99",
    "name": "수색1재정비촉진구역 도시환경정비사업 조합",
    "sido": "서울",
    "sigungu": "은평구",
    "projectType": "재개발",
    "stage": "조합설립인가",
    "lat": 37.58310332013119,
    "lng": 126.89441801091274,
    "representativeAddress": "서울 은평구 수색동 366-6",
    "representativeComplex": null,
    "dataAsOf": "2026-06-05",
    "source": "정보몽땅(cleanup.seoul.go.kr)",
    "transactions": [],
    "geocoded": true
  },
  {
    "id": "seoul-11380-100",
    "name": "증산5재정비촉진구역 주택재개발정비사업 조합",
    "sido": "서울",
    "sigungu": "은평구",
    "projectType": "재개발",
    "stage": "관리처분인가",
    "lat": 37.58819590962935,
    "lng": 126.91105461659382,
    "representativeAddress": "서울 은평구 증산동 195",
    "representativeComplex": null,
    "dataAsOf": "2026-06-05",
    "source": "정보몽땅(cleanup.seoul.go.kr)",
    "transactions": [],
    "geocoded": true
  },
  {
    "id": "seoul-11410-101",
    "name": "가재울뉴타운7구역주택재개발정비사업조합",
    "sido": "서울",
    "sigungu": "서대문구",
    "projectType": "재개발",
    "stage": "사업시행인가",
    "lat": 37.579589951239825,
    "lng": 126.91307512015833,
    "representativeAddress": "서울 서대문구 북가좌동 73-1",
    "representativeComplex": null,
    "dataAsOf": "2026-06-05",
    "source": "정보몽땅(cleanup.seoul.go.kr)",
    "transactions": [],
    "geocoded": true
  },
  {
    "id": "seoul-11410-102",
    "name": "북가좌제6구역 주택재건축정비사업조합",
    "sido": "서울",
    "sigungu": "서대문구",
    "projectType": "재건축",
    "stage": "조합설립인가",
    "lat": 37.57684348446375,
    "lng": 126.90481108370857,
    "representativeAddress": "서울 서대문구 북가좌동 372-1",
    "representativeComplex": "북가좌제6구역",
    "dataAsOf": "2026-06-05",
    "source": "정보몽땅(cleanup.seoul.go.kr)",
    "transactions": [],
    "geocoded": true
  },
  {
    "id": "seoul-11410-103",
    "name": "북아현 3 재정비촉진구역 주택재개발 정비사업조합",
    "sido": "서울",
    "sigungu": "서대문구",
    "projectType": "재개발",
    "stage": "사업시행인가",
    "lat": 37.56342237646911,
    "lng": 126.95794918590389,
    "representativeAddress": "서울 서대문구 북아현동 3-66",
    "representativeComplex": null,
    "dataAsOf": "2026-06-05",
    "source": "정보몽땅(cleanup.seoul.go.kr)",
    "transactions": [],
    "geocoded": true
  },
  {
    "id": "seoul-11410-104",
    "name": "북아현 2 재정비촉진구역 주택재개발 정비사업조합",
    "sido": "서울",
    "sigungu": "서대문구",
    "projectType": "재개발",
    "stage": "관리처분인가",
    "lat": 37.55958750746585,
    "lng": 126.95943044863634,
    "representativeAddress": "서울 서대문구 북아현동 520",
    "representativeComplex": null,
    "dataAsOf": "2026-06-05",
    "source": "정보몽땅(cleanup.seoul.go.kr)",
    "transactions": [],
    "geocoded": true
  },
  {
    "id": "seoul-11410-105",
    "name": "마포로5구역제2지구 도시정비형재개발사업조합",
    "sido": "서울",
    "sigungu": "서대문구",
    "projectType": "재개발",
    "stage": "조합설립인가",
    "lat": 37.56116820016779,
    "lng": 126.96404713418482,
    "representativeAddress": "서울 서대문구 충정로3가 250",
    "representativeComplex": null,
    "dataAsOf": "2026-06-05",
    "source": "정보몽땅(cleanup.seoul.go.kr)",
    "transactions": [],
    "geocoded": true
  },
  {
    "id": "seoul-11410-106",
    "name": "충정로1구역 주택정비형 공공재개발사업",
    "sido": "서울",
    "sigungu": "서대문구",
    "projectType": "재개발",
    "stage": "조합설립인가",
    "lat": 37.56090397162728,
    "lng": 126.9644349869742,
    "representativeAddress": "서울 서대문구 충정로3가 281-11",
    "representativeComplex": null,
    "dataAsOf": "2026-06-05",
    "source": "정보몽땅(cleanup.seoul.go.kr)",
    "transactions": [],
    "geocoded": true
  },
  {
    "id": "seoul-11410-107",
    "name": "홍은15구역 주택정비형 재개발사업",
    "sido": "서울",
    "sigungu": "서대문구",
    "projectType": "재개발",
    "stage": "조합설립인가",
    "lat": 37.5991559929287,
    "lng": 126.95033484847755,
    "representativeAddress": "서울 서대문구 홍은동 8-400",
    "representativeComplex": null,
    "dataAsOf": "2026-06-05",
    "source": "정보몽땅(cleanup.seoul.go.kr)",
    "transactions": [],
    "geocoded": true
  },
  {
    "id": "seoul-11410-108",
    "name": "홍은1구역 공공재개발사업",
    "sido": "서울",
    "sigungu": "서대문구",
    "projectType": "재개발",
    "stage": "조합설립인가",
    "lat": 37.59230434081181,
    "lng": 126.94238694409232,
    "representativeAddress": "서울 서대문구 홍은동 48-163",
    "representativeComplex": null,
    "dataAsOf": "2026-06-05",
    "source": "정보몽땅(cleanup.seoul.go.kr)",
    "transactions": [],
    "geocoded": true
  },
  {
    "id": "seoul-11410-109",
    "name": "홍은동 제5주택재건축정비사업 조합",
    "sido": "서울",
    "sigungu": "서대문구",
    "projectType": "재건축",
    "stage": "사업시행인가",
    "lat": 37.58107548196182,
    "lng": 126.93439928329275,
    "representativeAddress": "서울 서대문구 홍은동 277-45",
    "representativeComplex": "홍은동제5",
    "dataAsOf": "2026-06-05",
    "source": "정보몽땅(cleanup.seoul.go.kr)",
    "transactions": [],
    "geocoded": true
  },
  {
    "id": "seoul-11410-110",
    "name": "홍제3구역주택재건축정비사업조합",
    "sido": "서울",
    "sigungu": "서대문구",
    "projectType": "재건축",
    "stage": "관리처분인가",
    "lat": 37.584739466402866,
    "lng": 126.95011909145276,
    "representativeAddress": "서울 서대문구 홍제동 104-41",
    "representativeComplex": "홍제3구역",
    "dataAsOf": "2026-06-05",
    "source": "정보몽땅(cleanup.seoul.go.kr)",
    "transactions": [],
    "geocoded": true
  },
  {
    "id": "seoul-11410-111",
    "name": "홍제역 역세권활성화 사업",
    "sido": "서울",
    "sigungu": "서대문구",
    "projectType": "재개발",
    "stage": "사업시행인가",
    "lat": 37.590852960550784,
    "lng": 126.94286069627726,
    "representativeAddress": "서울 서대문구 홍제동 298-9",
    "representativeComplex": null,
    "dataAsOf": "2026-06-05",
    "source": "정보몽땅(cleanup.seoul.go.kr)",
    "transactions": [],
    "geocoded": true
  },
  {
    "id": "seoul-11410-112",
    "name": "홍제제2구역 도시환경정비사업조합",
    "sido": "서울",
    "sigungu": "서대문구",
    "projectType": "재개발",
    "stage": "조합설립인가",
    "lat": 37.590457536239086,
    "lng": 126.9415939607544,
    "representativeAddress": "서울 서대문구 홍제동 326-5",
    "representativeComplex": null,
    "dataAsOf": "2026-06-05",
    "source": "정보몽땅(cleanup.seoul.go.kr)",
    "transactions": [],
    "geocoded": true
  },
  {
    "id": "seoul-11440-113",
    "name": "공덕7구역 주택정비형 재개발사업",
    "sido": "서울",
    "sigungu": "마포구",
    "projectType": "재개발",
    "stage": "조합설립인가",
    "lat": 37.54817289348212,
    "lng": 126.95838824175621,
    "representativeAddress": "서울 마포구 공덕동 115-97",
    "representativeComplex": null,
    "dataAsOf": "2026-06-05",
    "source": "정보몽땅(cleanup.seoul.go.kr)",
    "transactions": [],
    "geocoded": true
  },
  {
    "id": "seoul-11440-114",
    "name": "공덕6구역 주택재개발 정비사업",
    "sido": "서울",
    "sigungu": "마포구",
    "projectType": "재개발",
    "stage": "사업시행인가",
    "lat": 37.54833817837179,
    "lng": 126.9559924785953,
    "representativeAddress": "서울 마포구 공덕동 119",
    "representativeComplex": null,
    "dataAsOf": "2026-06-05",
    "source": "정보몽땅(cleanup.seoul.go.kr)",
    "transactions": [],
    "geocoded": true
  },
  {
    "id": "seoul-11440-115",
    "name": "마포로1구역 제10지구 도시정비형 재개발사업 조합",
    "sido": "서울",
    "sigungu": "마포구",
    "projectType": "재개발",
    "stage": "사업시행인가",
    "lat": 37.54256718897007,
    "lng": 126.94739379785334,
    "representativeAddress": "서울 마포구 도화동 536",
    "representativeComplex": null,
    "dataAsOf": "2026-06-05",
    "source": "정보몽땅(cleanup.seoul.go.kr)",
    "transactions": [],
    "geocoded": true
  },
  {
    "id": "seoul-11440-116",
    "name": "성산시영아파트 재건축정비사업조합",
    "sido": "서울",
    "sigungu": "마포구",
    "projectType": "재건축",
    "stage": "조합설립인가",
    "lat": 37.572083791799,
    "lng": 126.90177892831503,
    "representativeAddress": "서울 마포구 성산동 446",
    "representativeComplex": "성산시영",
    "dataAsOf": "2026-06-05",
    "source": "정보몽땅(cleanup.seoul.go.kr)",
    "transactions": [],
    "geocoded": true
  },
  {
    "id": "seoul-11470-117",
    "name": "목동4단지아파트 재건축정비사업",
    "sido": "서울",
    "sigungu": "양천구",
    "projectType": "재건축",
    "stage": "조합설립인가",
    "lat": 37.53185281953516,
    "lng": 126.87288038138966,
    "representativeAddress": "서울 양천구 목동 904",
    "representativeComplex": "목동4단지",
    "dataAsOf": "2026-06-05",
    "source": "정보몽땅(cleanup.seoul.go.kr)",
    "transactions": [],
    "geocoded": true
  },
  {
    "id": "seoul-11470-118",
    "name": "목동6단지아파트 재건축정비사업조합",
    "sido": "서울",
    "sigungu": "양천구",
    "projectType": "재건축",
    "stage": "조합설립인가",
    "lat": 37.534569016927094,
    "lng": 126.88506798979441,
    "representativeAddress": "서울 양천구 목동 911",
    "representativeComplex": "목동6단지",
    "dataAsOf": "2026-06-05",
    "source": "정보몽땅(cleanup.seoul.go.kr)",
    "transactions": [],
    "geocoded": true
  },
  {
    "id": "seoul-11470-119",
    "name": "신정1재정비촉진구역3지구 주택재개발정비사업 조합",
    "sido": "서울",
    "sigungu": "양천구",
    "projectType": "재개발",
    "stage": "사업시행인가",
    "lat": 37.52116667581362,
    "lng": 126.84613255576441,
    "representativeAddress": "서울 양천구 신월동 606",
    "representativeComplex": null,
    "dataAsOf": "2026-06-05",
    "source": "정보몽땅(cleanup.seoul.go.kr)",
    "transactions": [],
    "geocoded": true
  },
  {
    "id": "seoul-11470-120",
    "name": "신월7동 2구역 주택정비형 공공재개발사업",
    "sido": "서울",
    "sigungu": "양천구",
    "projectType": "재개발",
    "stage": "조합설립인가",
    "lat": 37.52131821457811,
    "lng": 126.83255423782643,
    "representativeAddress": "서울 양천구 신월동 941",
    "representativeComplex": null,
    "dataAsOf": "2026-06-05",
    "source": "정보몽땅(cleanup.seoul.go.kr)",
    "transactions": [],
    "geocoded": true
  },
  {
    "id": "seoul-11470-121",
    "name": "목동8단지아파트 재건축정비사업조합",
    "sido": "서울",
    "sigungu": "양천구",
    "projectType": "재건축",
    "stage": "조합설립인가",
    "lat": 37.521248458087896,
    "lng": 126.86755002200954,
    "representativeAddress": "서울 양천구 신정동 314",
    "representativeComplex": "목동8단지",
    "dataAsOf": "2026-06-05",
    "source": "정보몽땅(cleanup.seoul.go.kr)",
    "transactions": [],
    "geocoded": true
  },
  {
    "id": "seoul-11470-122",
    "name": "목동12단지아파트 재건축정비사업",
    "sido": "서울",
    "sigungu": "양천구",
    "projectType": "재건축",
    "stage": "조합설립인가",
    "lat": 37.513415634791684,
    "lng": 126.86079406574888,
    "representativeAddress": "서울 양천구 신정동 326",
    "representativeComplex": "목동12단지",
    "dataAsOf": "2026-06-05",
    "source": "정보몽땅(cleanup.seoul.go.kr)",
    "transactions": [],
    "geocoded": true
  },
  {
    "id": "seoul-11470-123",
    "name": "신정동 1152번지 일대 주택정비형 재개발사업",
    "sido": "서울",
    "sigungu": "양천구",
    "projectType": "재개발",
    "stage": "조합설립인가",
    "lat": 37.51591151285072,
    "lng": 126.85204357835443,
    "representativeAddress": "서울 양천구 신정동 1152-1",
    "representativeComplex": null,
    "dataAsOf": "2026-06-05",
    "source": "정보몽땅(cleanup.seoul.go.kr)",
    "transactions": [],
    "geocoded": true
  },
  {
    "id": "seoul-11470-124",
    "name": "신정4재정비촉진구역 재건축정비사업조합",
    "sido": "서울",
    "sigungu": "양천구",
    "projectType": "재건축",
    "stage": "관리처분인가",
    "lat": 37.520794512267116,
    "lng": 126.84980045639574,
    "representativeAddress": "서울 양천구 신정동 1200-1",
    "representativeComplex": "신정4재정비촉진구역",
    "dataAsOf": "2026-06-05",
    "source": "정보몽땅(cleanup.seoul.go.kr)",
    "transactions": [],
    "geocoded": true
  },
  {
    "id": "seoul-11470-125",
    "name": "신정수정아파트 재건축정비사업",
    "sido": "서울",
    "sigungu": "양천구",
    "projectType": "재건축",
    "stage": "관리처분인가",
    "lat": 37.51241820900866,
    "lng": 126.84200262613979,
    "representativeAddress": "서울 양천구 신정동 733-31",
    "representativeComplex": "신정수정",
    "dataAsOf": "2026-06-05",
    "source": "정보몽땅(cleanup.seoul.go.kr)",
    "transactions": [],
    "geocoded": true
  },
  {
    "id": "seoul-11500-126",
    "name": "방화5재정비촉진구역 재건축정비사업조합",
    "sido": "서울",
    "sigungu": "강서구",
    "projectType": "재건축",
    "stage": "관리처분인가",
    "lat": 37.56422312999304,
    "lng": 126.81332894077434,
    "representativeAddress": "서울 강서구 공항동 18",
    "representativeComplex": "방화5재정비촉진구역",
    "dataAsOf": "2026-06-05",
    "source": "정보몽땅(cleanup.seoul.go.kr)",
    "transactions": [],
    "geocoded": true
  },
  {
    "id": "seoul-11500-127",
    "name": "경남1차주택재건축정비사업조합",
    "sido": "서울",
    "sigungu": "강서구",
    "projectType": "재건축",
    "stage": "조합설립인가",
    "lat": 37.5493674759224,
    "lng": 126.833660053442,
    "representativeAddress": "서울 강서구 내발산동 716-20",
    "representativeComplex": "경남1차",
    "dataAsOf": "2026-06-05",
    "source": "정보몽땅(cleanup.seoul.go.kr)",
    "transactions": [],
    "geocoded": true
  },
  {
    "id": "seoul-11500-128",
    "name": "신안빌라주택재건축정비사업",
    "sido": "서울",
    "sigungu": "강서구",
    "projectType": "재건축",
    "stage": "사업시행인가",
    "lat": 37.571082955264366,
    "lng": 126.82358826880363,
    "representativeAddress": "서울 강서구 마곡동 327-53",
    "representativeComplex": "신안빌라",
    "dataAsOf": "2026-06-05",
    "source": "정보몽땅(cleanup.seoul.go.kr)",
    "transactions": [],
    "geocoded": true
  },
  {
    "id": "seoul-11500-129",
    "name": "방화2재정비촉진구역 재개발정비사업",
    "sido": "서울",
    "sigungu": "강서구",
    "projectType": "재개발",
    "stage": "조합설립인가",
    "lat": 37.56719248253604,
    "lng": 126.80941252120641,
    "representativeAddress": "서울 강서구 방화동 589-13",
    "representativeComplex": null,
    "dataAsOf": "2026-06-05",
    "source": "정보몽땅(cleanup.seoul.go.kr)",
    "transactions": [],
    "geocoded": true
  },
  {
    "id": "seoul-11500-130",
    "name": "방화3재정비촉진구역 재건축정비사업조합",
    "sido": "서울",
    "sigungu": "강서구",
    "projectType": "재건축",
    "stage": "관리처분인가",
    "lat": 37.565917765560755,
    "lng": 126.80803285397931,
    "representativeAddress": "서울 강서구 방화동 615-103",
    "representativeComplex": "방화3재정비촉진구역",
    "dataAsOf": "2026-06-05",
    "source": "정보몽땅(cleanup.seoul.go.kr)",
    "transactions": [],
    "geocoded": true
  },
  {
    "id": "seoul-11530-131",
    "name": "가리봉1구역 주택정비형 재개발사업",
    "sido": "서울",
    "sigungu": "구로구",
    "projectType": "재개발",
    "stage": "조합설립인가",
    "lat": 37.483652169046,
    "lng": 126.89028942979522,
    "representativeAddress": "서울 구로구 가리봉동 115",
    "representativeComplex": null,
    "dataAsOf": "2026-06-05",
    "source": "정보몽땅(cleanup.seoul.go.kr)",
    "transactions": [],
    "geocoded": true
  },
  {
    "id": "seoul-11530-132",
    "name": "개봉3 재건축정비사업조합",
    "sido": "서울",
    "sigungu": "구로구",
    "projectType": "재건축",
    "stage": "조합설립인가",
    "lat": 37.50110206609797,
    "lng": 126.85471991945397,
    "representativeAddress": "서울 구로구 개봉동 454-14",
    "representativeComplex": "개봉3",
    "dataAsOf": "2026-06-05",
    "source": "정보몽땅(cleanup.seoul.go.kr)",
    "transactions": [],
    "geocoded": true
  },
  {
    "id": "seoul-11530-133",
    "name": "고척동 산업인아파트 재건축정비사업조합",
    "sido": "서울",
    "sigungu": "구로구",
    "projectType": "재건축",
    "stage": "사업시행인가",
    "lat": 37.504756667761626,
    "lng": 126.8667877943698,
    "representativeAddress": "서울 구로구 고척동 57-9",
    "representativeComplex": "고척동산업인",
    "dataAsOf": "2026-06-05",
    "source": "정보몽땅(cleanup.seoul.go.kr)",
    "transactions": [],
    "geocoded": true
  },
  {
    "id": "seoul-11530-134",
    "name": "구로동440번지일대(보광아파트)재건축정비사업조합",
    "sido": "서울",
    "sigungu": "구로구",
    "projectType": "재건축",
    "stage": "사업시행인가",
    "lat": 37.49510785445586,
    "lng": 126.88548038434695,
    "representativeAddress": "서울 구로구 구로동 440",
    "representativeComplex": "구로동440번지일대(보광아파트)",
    "dataAsOf": "2026-06-05",
    "source": "정보몽땅(cleanup.seoul.go.kr)",
    "transactions": [],
    "geocoded": true
  },
  {
    "id": "seoul-11530-135",
    "name": "남구로역세권 공공임대주택 도시정비형 재개발사업",
    "sido": "서울",
    "sigungu": "구로구",
    "projectType": "재개발",
    "stage": "사업시행인가",
    "lat": 37.48677584259174,
    "lng": 126.88469041447237,
    "representativeAddress": "서울 구로구 구로동 715-24",
    "representativeComplex": null,
    "dataAsOf": "2026-06-05",
    "source": "정보몽땅(cleanup.seoul.go.kr)",
    "transactions": [],
    "geocoded": true
  },
  {
    "id": "seoul-11530-136",
    "name": "우신빌라 재건축정비사업",
    "sido": "서울",
    "sigungu": "구로구",
    "projectType": "재건축",
    "stage": "조합설립인가",
    "lat": 37.494854685345715,
    "lng": 126.82892514641242,
    "representativeAddress": "서울 구로구 궁동 213-27",
    "representativeComplex": "우신빌라",
    "dataAsOf": "2026-06-05",
    "source": "정보몽땅(cleanup.seoul.go.kr)",
    "transactions": [],
    "geocoded": true
  },
  {
    "id": "seoul-11530-137",
    "name": "오류동 현대연립 주택재건축정비사업조합",
    "sido": "서울",
    "sigungu": "구로구",
    "projectType": "재건축",
    "stage": "관리처분인가",
    "lat": 37.48920485289666,
    "lng": 126.8417263875979,
    "representativeAddress": "서울 구로구 오류동 156-15",
    "representativeComplex": "오류동현대연립",
    "dataAsOf": "2026-06-05",
    "source": "정보몽땅(cleanup.seoul.go.kr)",
    "transactions": [],
    "geocoded": true
  },
  {
    "id": "seoul-11530-138",
    "name": "대흥성원동진빌라 주택재건축정비사업조합",
    "sido": "서울",
    "sigungu": "구로구",
    "projectType": "재건축",
    "stage": "사업시행인가",
    "lat": 37.489751282623004,
    "lng": 126.82349198242075,
    "representativeAddress": "서울 구로구 온수동 45-32",
    "representativeComplex": "대흥성원동진빌라",
    "dataAsOf": "2026-06-05",
    "source": "정보몽땅(cleanup.seoul.go.kr)",
    "transactions": [],
    "geocoded": true
  },
  {
    "id": "seoul-11545-139",
    "name": "무지개아파트 일대 재건축 정비사업 조합",
    "sido": "서울",
    "sigungu": "금천구",
    "projectType": "재건축",
    "stage": "사업시행인가",
    "lat": 37.45604960899739,
    "lng": 126.89835076039203,
    "representativeAddress": "서울 금천구 시흥동 109",
    "representativeComplex": "무지개아파트일대",
    "dataAsOf": "2026-06-05",
    "source": "정보몽땅(cleanup.seoul.go.kr)",
    "transactions": [],
    "geocoded": true
  },
  {
    "id": "seoul-11560-140",
    "name": "유원제일2차아파트 재건축정비사업조합",
    "sido": "서울",
    "sigungu": "영등포구",
    "projectType": "재건축",
    "stage": "사업시행인가",
    "lat": 37.53305658233167,
    "lng": 126.89855270196574,
    "representativeAddress": "서울 영등포구 당산동5가 7-2",
    "representativeComplex": "유원제일2차",
    "dataAsOf": "2026-06-05",
    "source": "정보몽땅(cleanup.seoul.go.kr)",
    "transactions": [],
    "geocoded": true
  },
  {
    "id": "seoul-11560-141",
    "name": "남성아파트 주택재건축정비사업조합",
    "sido": "서울",
    "sigungu": "영등포구",
    "projectType": "재건축",
    "stage": "사업시행인가",
    "lat": 37.51248941356529,
    "lng": 126.89163975508474,
    "representativeAddress": "서울 영등포구 문래동2가 35",
    "representativeComplex": "남성",
    "dataAsOf": "2026-06-05",
    "source": "정보몽땅(cleanup.seoul.go.kr)",
    "transactions": [],
    "geocoded": true
  },
  {
    "id": "seoul-11560-142",
    "name": "영등포 대선제분 일대 재개발1구역 제1지구",
    "sido": "서울",
    "sigungu": "영등포구",
    "projectType": "재개발",
    "stage": "사업시행인가",
    "lat": 37.5178709241621,
    "lng": 126.90100903455041,
    "representativeAddress": "서울 영등포구 문래동3가 16-32",
    "representativeComplex": null,
    "dataAsOf": "2026-06-05",
    "source": "정보몽땅(cleanup.seoul.go.kr)",
    "transactions": [],
    "geocoded": true
  },
  {
    "id": "seoul-11560-143",
    "name": "45. 문래동4가 도시환경정비구역 재개발정비사업조합",
    "sido": "서울",
    "sigungu": "영등포구",
    "projectType": "재개발",
    "stage": "조합설립인가",
    "lat": 37.51505601553698,
    "lng": 126.89037844220533,
    "representativeAddress": "서울 영등포구 문래동4가 23-6",
    "representativeComplex": null,
    "dataAsOf": "2026-06-05",
    "source": "정보몽땅(cleanup.seoul.go.kr)",
    "transactions": [],
    "geocoded": true
  },
  {
    "id": "seoul-11560-144",
    "name": "문래진주아파트 주택재건축정비사업조합",
    "sido": "서울",
    "sigungu": "영등포구",
    "projectType": "재건축",
    "stage": "관리처분인가",
    "lat": 37.51717727426261,
    "lng": 126.88476464912783,
    "representativeAddress": "서울 영등포구 문래동5가 22",
    "representativeComplex": "문래진주",
    "dataAsOf": "2026-06-05",
    "source": "정보몽땅(cleanup.seoul.go.kr)",
    "transactions": [],
    "geocoded": true
  },
  {
    "id": "seoul-11560-145",
    "name": "신길역세권 재개발정비사업조합",
    "sido": "서울",
    "sigungu": "영등포구",
    "projectType": "재개발",
    "stage": "조합설립인가",
    "lat": 37.516218167717504,
    "lng": 126.91537710466895,
    "representativeAddress": "서울 영등포구 신길동 39-3",
    "representativeComplex": null,
    "dataAsOf": "2026-06-05",
    "source": "정보몽땅(cleanup.seoul.go.kr)",
    "transactions": [],
    "geocoded": true
  },
  {
    "id": "seoul-11560-146",
    "name": "신길1구역 주택정비형 공공재개발사업",
    "sido": "서울",
    "sigungu": "영등포구",
    "projectType": "재개발",
    "stage": "조합설립인가",
    "lat": 37.509108614723644,
    "lng": 126.91629225677141,
    "representativeAddress": "서울 영등포구 신길동 147-80",
    "representativeComplex": null,
    "dataAsOf": "2026-06-05",
    "source": "정보몽땅(cleanup.seoul.go.kr)",
    "transactions": [],
    "geocoded": true
  },
  {
    "id": "seoul-11560-147",
    "name": "신길제2구역 주택재개발정비사업조합",
    "sido": "서울",
    "sigungu": "영등포구",
    "projectType": "재개발",
    "stage": "사업시행인가",
    "lat": 37.513672308536684,
    "lng": 126.91149057879186,
    "representativeAddress": "서울 영등포구 신길동 190",
    "representativeComplex": null,
    "dataAsOf": "2026-06-05",
    "source": "정보몽땅(cleanup.seoul.go.kr)",
    "transactions": [],
    "geocoded": true
  },
  {
    "id": "seoul-11560-148",
    "name": "신길13재정비촉진구역",
    "sido": "서울",
    "sigungu": "영등포구",
    "projectType": "재건축",
    "stage": "사업시행인가",
    "lat": 37.50134523691248,
    "lng": 126.90736107941197,
    "representativeAddress": "서울 영등포구 신길동 340-1",
    "representativeComplex": "신길13재정비촉진구역",
    "dataAsOf": "2026-06-05",
    "source": "정보몽땅(cleanup.seoul.go.kr)",
    "transactions": [],
    "geocoded": true
  },
  {
    "id": "seoul-11560-149",
    "name": "신길10재정비촉진구역 주택재건축정비사업 사업시행자(한국토지신탁)",
    "sido": "서울",
    "sigungu": "영등포구",
    "projectType": "재건축",
    "stage": "관리처분인가",
    "lat": 37.50127485157435,
    "lng": 126.91046994487246,
    "representativeAddress": "서울 영등포구 신길동 3590",
    "representativeComplex": "신길10재정비촉진구역",
    "dataAsOf": "2026-06-05",
    "source": "정보몽땅(cleanup.seoul.go.kr)",
    "transactions": [],
    "geocoded": true
  },
  {
    "id": "seoul-11560-150",
    "name": "신길우성2·우창아파트주택재건축정비사업(신탁방식-한국자산신탁)",
    "sido": "서울",
    "sigungu": "영등포구",
    "projectType": "재건축",
    "stage": "사업시행인가",
    "lat": 37.498216585125846,
    "lng": 126.91256505090456,
    "representativeAddress": "서울 영등포구 신길동 4518",
    "representativeComplex": "신길우성2·우창",
    "dataAsOf": "2026-06-05",
    "source": "정보몽땅(cleanup.seoul.go.kr)",
    "transactions": [],
    "geocoded": true
  },
  {
    "id": "seoul-11560-151",
    "name": "삼성아파트 주택재건축정비사업조합",
    "sido": "서울",
    "sigungu": "영등포구",
    "projectType": "재건축",
    "stage": "조합설립인가",
    "lat": 37.496360383847644,
    "lng": 126.9112482660745,
    "representativeAddress": "서울 영등포구 신길동 4759",
    "representativeComplex": "삼성",
    "dataAsOf": "2026-06-05",
    "source": "정보몽땅(cleanup.seoul.go.kr)",
    "transactions": [],
    "geocoded": true
  },
  {
    "id": "seoul-11560-152",
    "name": "신동아아파트 주택재건축정비사업조합",
    "sido": "서울",
    "sigungu": "영등포구",
    "projectType": "재건축",
    "stage": "조합설립인가",
    "lat": 37.5221117576415,
    "lng": 126.88653094849107,
    "representativeAddress": "서울 영등포구 양평동1가 20",
    "representativeComplex": "신동아",
    "dataAsOf": "2026-06-05",
    "source": "정보몽땅(cleanup.seoul.go.kr)",
    "transactions": [],
    "geocoded": true
  },
  {
    "id": "seoul-11560-153",
    "name": "70. 양평제13구역 도시환경정비사업조합",
    "sido": "서울",
    "sigungu": "영등포구",
    "projectType": "재개발",
    "stage": "사업시행인가",
    "lat": 37.52465492166664,
    "lng": 126.88524981665455,
    "representativeAddress": "서울 영등포구 양평동2가 33-20",
    "representativeComplex": null,
    "dataAsOf": "2026-06-05",
    "source": "정보몽땅(cleanup.seoul.go.kr)",
    "transactions": [],
    "geocoded": true
  },
  {
    "id": "seoul-11560-154",
    "name": "여의도 광장아파트 28주택재건축정비사업",
    "sido": "서울",
    "sigungu": "영등포구",
    "projectType": "재건축",
    "stage": "조합설립인가",
    "lat": 37.52081607017785,
    "lng": 126.92091574177476,
    "representativeAddress": "서울 영등포구 여의도동 28",
    "representativeComplex": "여의도광장아파트28",
    "dataAsOf": "2026-06-05",
    "source": "정보몽땅(cleanup.seoul.go.kr)",
    "transactions": [],
    "geocoded": true
  },
  {
    "id": "seoul-11560-155",
    "name": "여의도 목화아파트 주택재건축정비사업조합",
    "sido": "서울",
    "sigungu": "영등포구",
    "projectType": "재건축",
    "stage": "조합설립인가",
    "lat": 37.5260675253254,
    "lng": 126.93260144857412,
    "representativeAddress": "서울 영등포구 여의도동 30",
    "representativeComplex": "여의도목화",
    "dataAsOf": "2026-06-05",
    "source": "정보몽땅(cleanup.seoul.go.kr)",
    "transactions": [],
    "geocoded": true
  },
  {
    "id": "seoul-11560-156",
    "name": "광장아파트 38-1 재건축정비사업조합",
    "sido": "서울",
    "sigungu": "영등포구",
    "projectType": "재건축",
    "stage": "조합설립인가",
    "lat": 37.5198742474396,
    "lng": 126.9220975188104,
    "representativeAddress": "서울 영등포구 여의도동 38-1",
    "representativeComplex": "광장아파트38-1",
    "dataAsOf": "2026-06-05",
    "source": "정보몽땅(cleanup.seoul.go.kr)",
    "transactions": [],
    "geocoded": true
  },
  {
    "id": "seoul-11560-157",
    "name": "여의도 대교아파트 재건축정비사업",
    "sido": "서울",
    "sigungu": "영등포구",
    "projectType": "재건축",
    "stage": "사업시행인가",
    "lat": 37.522186269968714,
    "lng": 126.93365125036465,
    "representativeAddress": "서울 영등포구 여의도동 41",
    "representativeComplex": "여의도대교",
    "dataAsOf": "2026-06-05",
    "source": "정보몽땅(cleanup.seoul.go.kr)",
    "transactions": [],
    "geocoded": true
  },
  {
    "id": "seoul-11560-158",
    "name": "여의도 한양아파트 재건축정비사업",
    "sido": "서울",
    "sigungu": "영등포구",
    "projectType": "재건축",
    "stage": "사업시행인가",
    "lat": 37.521532755327016,
    "lng": 126.93244123583571,
    "representativeAddress": "서울 영등포구 여의도동 42",
    "representativeComplex": "여의도한양",
    "dataAsOf": "2026-06-05",
    "source": "정보몽땅(cleanup.seoul.go.kr)",
    "transactions": [],
    "geocoded": true
  },
  {
    "id": "seoul-11560-159",
    "name": "영등포 도심 역세권 도시정비형 재개발사업",
    "sido": "서울",
    "sigungu": "영등포구",
    "projectType": "재개발",
    "stage": "조합설립인가",
    "lat": 37.51657610100494,
    "lng": 126.90547269564611,
    "representativeAddress": "서울 영등포구 영등포동4가 431-6",
    "representativeComplex": null,
    "dataAsOf": "2026-06-05",
    "source": "정보몽땅(cleanup.seoul.go.kr)",
    "transactions": [],
    "geocoded": true
  },
  {
    "id": "seoul-11560-160",
    "name": "영등포1-12 재정비촉진구역 재개발정비사업 조합",
    "sido": "서울",
    "sigungu": "영등포구",
    "projectType": "재개발",
    "stage": "조합설립인가",
    "lat": 37.520405186220756,
    "lng": 126.90621373316154,
    "representativeAddress": "서울 영등포구 영등포동5가 22-3",
    "representativeComplex": null,
    "dataAsOf": "2026-06-05",
    "source": "정보몽땅(cleanup.seoul.go.kr)",
    "transactions": [],
    "geocoded": true
  },
  {
    "id": "seoul-11560-161",
    "name": "영등포1-11재정비촉진구역 도시환경정비사업조합",
    "sido": "서울",
    "sigungu": "영등포구",
    "projectType": "재개발",
    "stage": "사업시행인가",
    "lat": 37.52111057389013,
    "lng": 126.90561136272635,
    "representativeAddress": "서울 영등포구 영등포동5가 30",
    "representativeComplex": null,
    "dataAsOf": "2026-06-05",
    "source": "정보몽땅(cleanup.seoul.go.kr)",
    "transactions": [],
    "geocoded": true
  },
  {
    "id": "seoul-11560-162",
    "name": "영등포1-2재정비촉진구역 도시환경정비사업 조합",
    "sido": "서울",
    "sigungu": "영등포구",
    "projectType": "재개발",
    "stage": "사업시행인가",
    "lat": 37.52443853732303,
    "lng": 126.90563506757971,
    "representativeAddress": "서울 영등포구 영등포동7가 76-5",
    "representativeComplex": null,
    "dataAsOf": "2026-06-05",
    "source": "정보몽땅(cleanup.seoul.go.kr)",
    "transactions": [],
    "geocoded": true
  },
  {
    "id": "seoul-11590-163",
    "name": "노량진4재정비촉진구역 조합",
    "sido": "서울",
    "sigungu": "동작구",
    "projectType": "재개발",
    "stage": "관리처분인가",
    "lat": 37.50764979223415,
    "lng": 126.94184880714442,
    "representativeAddress": "서울 동작구 노량진동 227-5",
    "representativeComplex": null,
    "dataAsOf": "2026-06-05",
    "source": "정보몽땅(cleanup.seoul.go.kr)",
    "transactions": [],
    "geocoded": true
  },
  {
    "id": "seoul-11590-164",
    "name": "노량진3재정비촉진구역 조합",
    "sido": "서울",
    "sigungu": "동작구",
    "projectType": "재개발",
    "stage": "관리처분인가",
    "lat": 37.510466276801324,
    "lng": 126.94051351518075,
    "representativeAddress": "서울 동작구 노량진동 232-19",
    "representativeComplex": null,
    "dataAsOf": "2026-06-05",
    "source": "정보몽땅(cleanup.seoul.go.kr)",
    "transactions": [],
    "geocoded": true
  },
  {
    "id": "seoul-11590-165",
    "name": "노량진5재정비촉진구역 조합",
    "sido": "서울",
    "sigungu": "동작구",
    "projectType": "재개발",
    "stage": "관리처분인가",
    "lat": 37.51188536345499,
    "lng": 126.9350374236609,
    "representativeAddress": "서울 동작구 노량진동 270-3",
    "representativeComplex": null,
    "dataAsOf": "2026-06-05",
    "source": "정보몽땅(cleanup.seoul.go.kr)",
    "transactions": [],
    "geocoded": true
  },
  {
    "id": "seoul-11590-166",
    "name": "노량진1재정비촉진구역 조합",
    "sido": "서울",
    "sigungu": "동작구",
    "projectType": "재개발",
    "stage": "사업시행인가",
    "lat": 37.511837529922786,
    "lng": 126.93648637571661,
    "representativeAddress": "서울 동작구 노량진동 278-2",
    "representativeComplex": null,
    "dataAsOf": "2026-06-05",
    "source": "정보몽땅(cleanup.seoul.go.kr)",
    "transactions": [],
    "geocoded": true
  },
  {
    "id": "seoul-11590-167",
    "name": "노량진7재정비촉진구역 조합",
    "sido": "서울",
    "sigungu": "동작구",
    "projectType": "재개발",
    "stage": "관리처분인가",
    "lat": 37.506591773109086,
    "lng": 126.93360239614779,
    "representativeAddress": "서울 동작구 대방동 13-31",
    "representativeComplex": null,
    "dataAsOf": "2026-06-05",
    "source": "정보몽땅(cleanup.seoul.go.kr)",
    "transactions": [],
    "geocoded": true
  },
  {
    "id": "seoul-11590-168",
    "name": "노량진8재정비촉진구역 조합",
    "sido": "서울",
    "sigungu": "동작구",
    "projectType": "재개발",
    "stage": "관리처분인가",
    "lat": 37.51144731965843,
    "lng": 126.93216750075433,
    "representativeAddress": "서울 동작구 대방동 23-61",
    "representativeComplex": null,
    "dataAsOf": "2026-06-05",
    "source": "정보몽땅(cleanup.seoul.go.kr)",
    "transactions": [],
    "geocoded": true
  },
  {
    "id": "seoul-11590-169",
    "name": "본동구역 주택정비형 공공재개발사업",
    "sido": "서울",
    "sigungu": "동작구",
    "projectType": "재개발",
    "stage": "조합설립인가",
    "lat": 37.51264842481886,
    "lng": 126.95511715030673,
    "representativeAddress": "서울 동작구 본동 47",
    "representativeComplex": null,
    "dataAsOf": "2026-06-05",
    "source": "정보몽땅(cleanup.seoul.go.kr)",
    "transactions": [],
    "geocoded": true
  },
  {
    "id": "seoul-11590-170",
    "name": "사당5주택재건축정비사업조합",
    "sido": "서울",
    "sigungu": "동작구",
    "projectType": "재건축",
    "stage": "사업시행인가",
    "lat": 37.478734228924324,
    "lng": 126.97089342735012,
    "representativeAddress": "서울 동작구 사당동 303",
    "representativeComplex": "사당5",
    "dataAsOf": "2026-06-05",
    "source": "정보몽땅(cleanup.seoul.go.kr)",
    "transactions": [],
    "geocoded": true
  },
  {
    "id": "seoul-11590-171",
    "name": "신대방역세권 재개발정비사업조합",
    "sido": "서울",
    "sigungu": "동작구",
    "projectType": "재개발",
    "stage": "조합설립인가",
    "lat": 37.48957548986875,
    "lng": 126.91168465619296,
    "representativeAddress": "서울 동작구 신대방동 600-14",
    "representativeComplex": null,
    "dataAsOf": "2026-06-05",
    "source": "정보몽땅(cleanup.seoul.go.kr)",
    "transactions": [],
    "geocoded": true
  },
  {
    "id": "seoul-11590-172",
    "name": "흑석2재정비촉진구역 재개발정비사업",
    "sido": "서울",
    "sigungu": "동작구",
    "projectType": "재개발",
    "stage": "조합설립인가",
    "lat": 37.50760176917797,
    "lng": 126.96214175434159,
    "representativeAddress": "서울 동작구 흑석동 99-3",
    "representativeComplex": null,
    "dataAsOf": "2026-06-05",
    "source": "정보몽땅(cleanup.seoul.go.kr)",
    "transactions": [],
    "geocoded": true
  },
  {
    "id": "seoul-11590-173",
    "name": "흑석11재정비촉진구역 주택재개발정비사업조합",
    "sido": "서울",
    "sigungu": "동작구",
    "projectType": "재개발",
    "stage": "이주·철거",
    "lat": 37.50554507900221,
    "lng": 126.96914677924326,
    "representativeAddress": "서울 동작구 흑석동 304",
    "representativeComplex": null,
    "dataAsOf": "2026-06-05",
    "source": "정보몽땅(cleanup.seoul.go.kr)",
    "transactions": [],
    "geocoded": true
  },
  {
    "id": "seoul-11590-174",
    "name": "흑석1재정비촉진구역 재개발정비사업조합",
    "sido": "서울",
    "sigungu": "동작구",
    "projectType": "재개발",
    "stage": "조합설립인가",
    "lat": 37.50704388515473,
    "lng": 126.96511957455355,
    "representativeAddress": "서울 동작구 흑석동 43-7",
    "representativeComplex": null,
    "dataAsOf": "2026-06-05",
    "source": "정보몽땅(cleanup.seoul.go.kr)",
    "transactions": [],
    "geocoded": true
  },
  {
    "id": "seoul-11620-175",
    "name": "봉천4-1-3구역 주택재개발정비사업조합",
    "sido": "서울",
    "sigungu": "관악구",
    "projectType": "재개발",
    "stage": "사업시행인가",
    "lat": 37.4897193140967,
    "lng": 126.94793204582368,
    "representativeAddress": "서울 관악구 봉천동 480",
    "representativeComplex": null,
    "dataAsOf": "2026-06-05",
    "source": "정보몽땅(cleanup.seoul.go.kr)",
    "transactions": [],
    "geocoded": true
  },
  {
    "id": "seoul-11620-176",
    "name": "봉천1-1구역 재건축정비사업 조합",
    "sido": "서울",
    "sigungu": "관악구",
    "projectType": "재건축",
    "stage": "사업시행인가",
    "lat": 37.492489323988465,
    "lng": 126.92737866692437,
    "representativeAddress": "서울 관악구 봉천동 728-57",
    "representativeComplex": "봉천1-1구역",
    "dataAsOf": "2026-06-05",
    "source": "정보몽땅(cleanup.seoul.go.kr)",
    "transactions": [],
    "geocoded": true
  },
  {
    "id": "seoul-11620-177",
    "name": "봉천제14구역 재개발정비사업조합",
    "sido": "서울",
    "sigungu": "관악구",
    "projectType": "재개발",
    "stage": "사업시행인가",
    "lat": 37.49169484384869,
    "lng": 126.95960115373731,
    "representativeAddress": "서울 관악구 봉천동 1",
    "representativeComplex": null,
    "dataAsOf": "2026-06-05",
    "source": "정보몽땅(cleanup.seoul.go.kr)",
    "transactions": [],
    "geocoded": true
  },
  {
    "id": "seoul-11620-178",
    "name": "신림2재정비촉진구역 재개발정비사업조합",
    "sido": "서울",
    "sigungu": "관악구",
    "projectType": "재개발",
    "stage": "이주·철거",
    "lat": 37.46567318065162,
    "lng": 126.93004095029119,
    "representativeAddress": "서울 관악구 신림동 324-25",
    "representativeComplex": null,
    "dataAsOf": "2026-06-05",
    "source": "정보몽땅(cleanup.seoul.go.kr)",
    "transactions": [],
    "geocoded": true
  },
  {
    "id": "seoul-11620-179",
    "name": "뉴서울아파트, 개나리,열망연립 재건축정비사업",
    "sido": "서울",
    "sigungu": "관악구",
    "projectType": "재건축",
    "stage": "사업시행인가",
    "lat": 37.470626941062825,
    "lng": 126.91113505961607,
    "representativeAddress": "서울 관악구 신림동 739",
    "representativeComplex": "뉴서울아파트,개나리,열망연립",
    "dataAsOf": "2026-06-05",
    "source": "정보몽땅(cleanup.seoul.go.kr)",
    "transactions": [],
    "geocoded": true
  },
  {
    "id": "seoul-11620-180",
    "name": "미성동 건영아파트 재건축정비사업 조합",
    "sido": "서울",
    "sigungu": "관악구",
    "projectType": "재건축",
    "stage": "조합설립인가",
    "lat": 37.476448627962014,
    "lng": 126.91248596383492,
    "representativeAddress": "서울 관악구 신림동 746-43",
    "representativeComplex": "미성동건영",
    "dataAsOf": "2026-06-05",
    "source": "정보몽땅(cleanup.seoul.go.kr)",
    "transactions": [],
    "geocoded": true
  },
  {
    "id": "seoul-11620-181",
    "name": "신림1재정비촉진구역 재개발정비사업조합",
    "sido": "서울",
    "sigungu": "관악구",
    "projectType": "재개발",
    "stage": "사업시행인가",
    "lat": 37.47267546178426,
    "lng": 126.93321367122681,
    "representativeAddress": "서울 관악구 신림동 808",
    "representativeComplex": null,
    "dataAsOf": "2026-06-05",
    "source": "정보몽땅(cleanup.seoul.go.kr)",
    "transactions": [],
    "geocoded": true
  },
  {
    "id": "seoul-11620-182",
    "name": "미성아파트 재건축정비사업 조합",
    "sido": "서울",
    "sigungu": "관악구",
    "projectType": "재건축",
    "stage": "사업시행인가",
    "lat": 37.48250580441042,
    "lng": 126.90348187589328,
    "representativeAddress": "서울 관악구 신림동 1656",
    "representativeComplex": "미성",
    "dataAsOf": "2026-06-05",
    "source": "정보몽땅(cleanup.seoul.go.kr)",
    "transactions": [],
    "geocoded": true
  },
  {
    "id": "seoul-11650-183",
    "name": "삼호가든5차아파트 재건축정비사업조합",
    "sido": "서울",
    "sigungu": "서초구",
    "projectType": "재건축",
    "stage": "조합설립인가",
    "lat": 37.503895929881686,
    "lng": 127.01151598151631,
    "representativeAddress": "서울 서초구 반포동 30-1",
    "representativeComplex": "삼호가든5차",
    "dataAsOf": "2026-06-05",
    "source": "정보몽땅(cleanup.seoul.go.kr)",
    "transactions": [],
    "geocoded": true
  },
  {
    "id": "seoul-11650-184",
    "name": "반포미도1차아파트 재건축정비사업조합",
    "sido": "서울",
    "sigungu": "서초구",
    "projectType": "재건축",
    "stage": "조합설립인가",
    "lat": 37.50106616637722,
    "lng": 127.00831081322869,
    "representativeAddress": "서울 서초구 반포동 60-4",
    "representativeComplex": "반포미도1차",
    "dataAsOf": "2026-06-05",
    "source": "정보몽땅(cleanup.seoul.go.kr)",
    "transactions": [],
    "geocoded": true
  },
  {
    "id": "seoul-11650-185",
    "name": "반포미도2차아파트 재건축정비사업 조합설립추진위원회",
    "sido": "서울",
    "sigungu": "서초구",
    "projectType": "재건축",
    "stage": "조합설립인가",
    "lat": 37.502188094316615,
    "lng": 127.00748877873625,
    "representativeAddress": "서울 서초구 반포동 60-5",
    "representativeComplex": "반포미도2차",
    "dataAsOf": "2026-06-05",
    "source": "정보몽땅(cleanup.seoul.go.kr)",
    "transactions": [],
    "geocoded": true
  },
  {
    "id": "seoul-11650-186",
    "name": "신반포궁전아파트 주택재건축정비사업조합",
    "sido": "서울",
    "sigungu": "서초구",
    "projectType": "재건축",
    "stage": "조합설립인가",
    "lat": 37.50042460483523,
    "lng": 127.00071760237688,
    "representativeAddress": "서울 서초구 반포동 65-1",
    "representativeComplex": "신반포궁전",
    "dataAsOf": "2026-06-05",
    "source": "정보몽땅(cleanup.seoul.go.kr)",
    "transactions": [],
    "geocoded": true
  },
  {
    "id": "seoul-11650-187",
    "name": "강남원효성빌라 재건축정비사업조합",
    "sido": "서울",
    "sigungu": "서초구",
    "projectType": "재건축",
    "stage": "조합설립인가",
    "lat": 37.49643397040915,
    "lng": 126.9963803396286,
    "representativeAddress": "서울 서초구 반포동 591-1",
    "representativeComplex": "강남원효성빌라",
    "dataAsOf": "2026-06-05",
    "source": "정보몽땅(cleanup.seoul.go.kr)",
    "transactions": [],
    "geocoded": true
  },
  {
    "id": "seoul-11650-188",
    "name": "방배15 재건축정비사업조합",
    "sido": "서울",
    "sigungu": "서초구",
    "projectType": "재건축",
    "stage": "조합설립인가",
    "lat": 37.47999187286922,
    "lng": 126.98614338776495,
    "representativeAddress": "서울 서초구 방배동 528-3",
    "representativeComplex": "방배15",
    "dataAsOf": "2026-06-05",
    "source": "정보몽땅(cleanup.seoul.go.kr)",
    "transactions": [],
    "geocoded": true
  },
  {
    "id": "seoul-11650-189",
    "name": "방배13구역 주택재건축정비사업조합",
    "sido": "서울",
    "sigungu": "서초구",
    "projectType": "재건축",
    "stage": "이주·철거",
    "lat": 37.47820407795486,
    "lng": 126.99065431301253,
    "representativeAddress": "서울 서초구 방배동 541-2",
    "representativeComplex": "방배13구역",
    "dataAsOf": "2026-06-05",
    "source": "정보몽땅(cleanup.seoul.go.kr)",
    "transactions": [],
    "geocoded": true
  },
  {
    "id": "seoul-11650-190",
    "name": "신성빌라 주택재건축정비사업조합",
    "sido": "서울",
    "sigungu": "서초구",
    "projectType": "재건축",
    "stage": "조합설립인가",
    "lat": 37.47471010195147,
    "lng": 126.99325986930336,
    "representativeAddress": "서울 서초구 방배동 593-98",
    "representativeComplex": "신성빌라",
    "dataAsOf": "2026-06-05",
    "source": "정보몽땅(cleanup.seoul.go.kr)",
    "transactions": [],
    "geocoded": true
  },
  {
    "id": "seoul-11650-191",
    "name": "방배신삼호아파트 재건축정비사업조합",
    "sido": "서울",
    "sigungu": "서초구",
    "projectType": "재건축",
    "stage": "조합설립인가",
    "lat": 37.49715732570387,
    "lng": 126.9898295932272,
    "representativeAddress": "서울 서초구 방배동 725",
    "representativeComplex": "방배신삼호",
    "dataAsOf": "2026-06-05",
    "source": "정보몽땅(cleanup.seoul.go.kr)",
    "transactions": [],
    "geocoded": true
  },
  {
    "id": "seoul-11650-192",
    "name": "방배7구역 주택재건축정비사업조합",
    "sido": "서울",
    "sigungu": "서초구",
    "projectType": "재건축",
    "stage": "사업시행인가",
    "lat": 37.487515631730474,
    "lng": 126.99738183955385,
    "representativeAddress": "서울 서초구 방배동 891-3",
    "representativeComplex": "방배7구역",
    "dataAsOf": "2026-06-05",
    "source": "정보몽땅(cleanup.seoul.go.kr)",
    "transactions": [],
    "geocoded": true
  },
  {
    "id": "seoul-11650-193",
    "name": "방배14구역 주택재건축정비사업조합",
    "sido": "서울",
    "sigungu": "서초구",
    "projectType": "재건축",
    "stage": "이주·철거",
    "lat": 37.48128468456774,
    "lng": 126.9912287912536,
    "representativeAddress": "서울 서초구 방배동 975-35",
    "representativeComplex": "방배14구역",
    "dataAsOf": "2026-06-05",
    "source": "정보몽땅(cleanup.seoul.go.kr)",
    "transactions": [],
    "geocoded": true
  },
  {
    "id": "seoul-11650-194",
    "name": "방배신동아아파트 재건축정비사업조합",
    "sido": "서울",
    "sigungu": "서초구",
    "projectType": "재건축",
    "stage": "관리처분인가",
    "lat": 37.48086710666797,
    "lng": 127.00105228357737,
    "representativeAddress": "서울 서초구 방배동 988-1",
    "representativeComplex": "방배신동아",
    "dataAsOf": "2026-06-05",
    "source": "정보몽땅(cleanup.seoul.go.kr)",
    "transactions": [],
    "geocoded": true
  },
  {
    "id": "seoul-11650-195",
    "name": "서초중앙하이츠2구역 주택재건축정비사업조합",
    "sido": "서울",
    "sigungu": "서초구",
    "projectType": "재건축",
    "stage": "사업시행인가",
    "lat": 37.47992269349066,
    "lng": 127.0034803559235,
    "representativeAddress": "서울 서초구 방배동 1000-3",
    "representativeComplex": "서초중앙하이츠2구역",
    "dataAsOf": "2026-06-05",
    "source": "정보몽땅(cleanup.seoul.go.kr)",
    "transactions": [],
    "geocoded": true
  },
  {
    "id": "seoul-11650-196",
    "name": "서초중앙하이츠1구역 주택재건축정비사업조합",
    "sido": "서울",
    "sigungu": "서초구",
    "projectType": "재건축",
    "stage": "사업시행인가",
    "lat": 37.47928703694265,
    "lng": 127.0038996312926,
    "representativeAddress": "서울 서초구 방배동 1000-4",
    "representativeComplex": "서초중앙하이츠1구역",
    "dataAsOf": "2026-06-05",
    "source": "정보몽땅(cleanup.seoul.go.kr)",
    "transactions": [],
    "geocoded": true
  },
  {
    "id": "seoul-11650-197",
    "name": "서초진흥아파트 주택재건축정비사업조합",
    "sido": "서울",
    "sigungu": "서초구",
    "projectType": "재건축",
    "stage": "조합설립인가",
    "lat": 37.49746743367575,
    "lng": 127.02267903807916,
    "representativeAddress": "서울 서초구 서초동 1315",
    "representativeComplex": "서초진흥",
    "dataAsOf": "2026-06-05",
    "source": "정보몽땅(cleanup.seoul.go.kr)",
    "transactions": [],
    "geocoded": true
  },
  {
    "id": "seoul-11650-198",
    "name": "신반포12차아파트 재건축정비사업조합",
    "sido": "서울",
    "sigungu": "서초구",
    "projectType": "재건축",
    "stage": "관리처분인가",
    "lat": 37.51612938851227,
    "lng": 127.0147129701701,
    "representativeAddress": "서울 서초구 잠원동 50-5",
    "representativeComplex": "신반포12차",
    "dataAsOf": "2026-06-05",
    "source": "정보몽땅(cleanup.seoul.go.kr)",
    "transactions": [],
    "geocoded": true
  },
  {
    "id": "seoul-11650-199",
    "name": "신반포16차아파트 주택재건축정비사업조합",
    "sido": "서울",
    "sigungu": "서초구",
    "projectType": "재건축",
    "stage": "관리처분인가",
    "lat": 37.51817726370391,
    "lng": 127.01101550820815,
    "representativeAddress": "서울 서초구 잠원동 55-10",
    "representativeComplex": "신반포16차",
    "dataAsOf": "2026-06-05",
    "source": "정보몽땅(cleanup.seoul.go.kr)",
    "transactions": [],
    "geocoded": true
  },
  {
    "id": "seoul-11650-200",
    "name": "신반포27차아파트 주택재건축정비사업조합",
    "sido": "서울",
    "sigungu": "서초구",
    "projectType": "재건축",
    "stage": "관리처분인가",
    "lat": 37.51572581263093,
    "lng": 127.00977862118395,
    "representativeAddress": "서울 서초구 잠원동 56-2",
    "representativeComplex": "신반포27차",
    "dataAsOf": "2026-06-05",
    "source": "정보몽땅(cleanup.seoul.go.kr)",
    "transactions": [],
    "geocoded": true
  },
  {
    "id": "seoul-11650-201",
    "name": "신반포20차아파트 주택재건축정비사업조합",
    "sido": "서울",
    "sigungu": "서초구",
    "projectType": "재건축",
    "stage": "조합설립인가",
    "lat": 37.509853847498064,
    "lng": 127.0118845287564,
    "representativeAddress": "서울 서초구 잠원동 60-78",
    "representativeComplex": "신반포20차",
    "dataAsOf": "2026-06-05",
    "source": "정보몽땅(cleanup.seoul.go.kr)",
    "transactions": [],
    "geocoded": true
  },
  {
    "id": "seoul-11650-202",
    "name": "신반포19차 25차(아) 재건축정비사업조합",
    "sido": "서울",
    "sigungu": "서초구",
    "projectType": "재건축",
    "stage": "조합설립인가",
    "lat": 37.51423051930023,
    "lng": 127.01018005669754,
    "representativeAddress": "서울 서초구 잠원동 61-2",
    "representativeComplex": "신반포19차25차(아)",
    "dataAsOf": "2026-06-05",
    "source": "정보몽땅(cleanup.seoul.go.kr)",
    "transactions": [],
    "geocoded": true
  },
  {
    "id": "seoul-11650-203",
    "name": "신반포7차아파트주택재건축정비사업조합",
    "sido": "서울",
    "sigungu": "서초구",
    "projectType": "재건축",
    "stage": "조합설립인가",
    "lat": 37.512401801411585,
    "lng": 127.00788406707184,
    "representativeAddress": "서울 서초구 잠원동 65-32",
    "representativeComplex": "신반포7차",
    "dataAsOf": "2026-06-05",
    "source": "정보몽땅(cleanup.seoul.go.kr)",
    "transactions": [],
    "geocoded": true
  },
  {
    "id": "seoul-11650-204",
    "name": "신반포4차아파트 재건축정비사업조합",
    "sido": "서울",
    "sigungu": "서초구",
    "projectType": "재건축",
    "stage": "조합설립인가",
    "lat": 37.50851353262654,
    "lng": 127.00689573499541,
    "representativeAddress": "서울 서초구 잠원동 70",
    "representativeComplex": "신반포4차",
    "dataAsOf": "2026-06-05",
    "source": "정보몽땅(cleanup.seoul.go.kr)",
    "transactions": [],
    "geocoded": true
  },
  {
    "id": "seoul-11650-205",
    "name": "신반포2차아파트 재건축정비사업조합",
    "sido": "서울",
    "sigungu": "서초구",
    "projectType": "재건축",
    "stage": "조합설립인가",
    "lat": 37.510698841096456,
    "lng": 127.00286425756627,
    "representativeAddress": "서울 서초구 잠원동 73",
    "representativeComplex": "신반포2차",
    "dataAsOf": "2026-06-05",
    "source": "정보몽땅(cleanup.seoul.go.kr)",
    "transactions": [],
    "geocoded": true
  },
  {
    "id": "seoul-11680-206",
    "name": "개포주공6,7단지아파트 재건축정비사업조합",
    "sido": "서울",
    "sigungu": "강남구",
    "projectType": "재건축",
    "stage": "사업시행인가",
    "lat": 37.48907541880297,
    "lng": 127.07151186766089,
    "representativeAddress": "서울 강남구 개포동 185",
    "representativeComplex": "개포주공6,7단지",
    "dataAsOf": "2026-06-05",
    "source": "정보몽땅(cleanup.seoul.go.kr)",
    "transactions": [],
    "geocoded": true
  },
  {
    "id": "seoul-11680-207",
    "name": "개포주공5단지아파트 재건축정비사업 조합",
    "sido": "서울",
    "sigungu": "강남구",
    "projectType": "재건축",
    "stage": "관리처분인가",
    "lat": 37.48763634008898,
    "lng": 127.06850442401903,
    "representativeAddress": "서울 강남구 개포동 187",
    "representativeComplex": "개포주공5단지",
    "dataAsOf": "2026-06-05",
    "source": "정보몽땅(cleanup.seoul.go.kr)",
    "transactions": [],
    "geocoded": true
  },
  {
    "id": "seoul-11680-208",
    "name": "개포우성6차아파트 재건축정비사업조합",
    "sido": "서울",
    "sigungu": "강남구",
    "projectType": "재건축",
    "stage": "조합설립인가",
    "lat": 37.47615558924771,
    "lng": 127.05721246762467,
    "representativeAddress": "서울 강남구 개포동 658-1",
    "representativeComplex": "개포우성6차",
    "dataAsOf": "2026-06-05",
    "source": "정보몽땅(cleanup.seoul.go.kr)",
    "transactions": [],
    "geocoded": true
  },
  {
    "id": "seoul-11680-209",
    "name": "논현청학아파트재건축정비사업 조합",
    "sido": "서울",
    "sigungu": "강남구",
    "projectType": "재건축",
    "stage": "조합설립인가",
    "lat": 37.52028866302875,
    "lng": 127.03221522253878,
    "representativeAddress": "서울 강남구 논현동 62-3",
    "representativeComplex": "논현청학",
    "dataAsOf": "2026-06-05",
    "source": "정보몽땅(cleanup.seoul.go.kr)",
    "transactions": [],
    "geocoded": true
  },
  {
    "id": "seoul-11680-210",
    "name": "대성연립주택재건축정비사업조합",
    "sido": "서울",
    "sigungu": "강남구",
    "projectType": "재건축",
    "stage": "조합설립인가",
    "lat": 37.50859488444833,
    "lng": 127.03261724119011,
    "representativeAddress": "서울 강남구 논현동 191-4",
    "representativeComplex": "대성연립",
    "dataAsOf": "2026-06-05",
    "source": "정보몽땅(cleanup.seoul.go.kr)",
    "transactions": [],
    "geocoded": true
  },
  {
    "id": "seoul-11680-211",
    "name": "대치우성1차아파트 재건축정비사업조합",
    "sido": "서울",
    "sigungu": "강남구",
    "projectType": "재건축",
    "stage": "사업시행인가",
    "lat": 37.5001560354585,
    "lng": 127.06925352819403,
    "representativeAddress": "서울 강남구 대치동 63",
    "representativeComplex": "대치우성1차",
    "dataAsOf": "2026-06-05",
    "source": "정보몽땅(cleanup.seoul.go.kr)",
    "transactions": [],
    "geocoded": true
  },
  {
    "id": "seoul-11680-212",
    "name": "대치쌍용2차아파트 주택재건축정비사업조합",
    "sido": "서울",
    "sigungu": "강남구",
    "projectType": "재건축",
    "stage": "사업시행인가",
    "lat": 37.49960467876271,
    "lng": 127.07087401342011,
    "representativeAddress": "서울 강남구 대치동 65",
    "representativeComplex": "대치쌍용2차",
    "dataAsOf": "2026-06-05",
    "source": "정보몽땅(cleanup.seoul.go.kr)",
    "transactions": [],
    "geocoded": true
  },
  {
    "id": "seoul-11680-213",
    "name": "대치쌍용1차아파트 주택재건축정비사업조합",
    "sido": "서울",
    "sigungu": "강남구",
    "projectType": "재건축",
    "stage": "사업시행인가",
    "lat": 37.49806646701133,
    "lng": 127.07107244041364,
    "representativeAddress": "서울 강남구 대치동 66",
    "representativeComplex": "대치쌍용1차",
    "dataAsOf": "2026-06-05",
    "source": "정보몽땅(cleanup.seoul.go.kr)",
    "transactions": [],
    "geocoded": true
  },
  {
    "id": "seoul-11680-214",
    "name": "은마아파트 재건축정비사업조합",
    "sido": "서울",
    "sigungu": "강남구",
    "projectType": "재건축",
    "stage": "조합설립인가",
    "lat": 37.49752403557836,
    "lng": 127.06545144595266,
    "representativeAddress": "서울 강남구 대치동 316",
    "representativeComplex": "은마",
    "dataAsOf": "2026-06-05",
    "source": "정보몽땅(cleanup.seoul.go.kr)",
    "transactions": [],
    "geocoded": true
  },
  {
    "id": "seoul-11680-215",
    "name": "도곡개포한신아파트 주택재건축정비사업조합",
    "sido": "서울",
    "sigungu": "강남구",
    "projectType": "재건축",
    "stage": "관리처분인가",
    "lat": 37.486732224701555,
    "lng": 127.0488298153113,
    "representativeAddress": "서울 강남구 도곡동 464",
    "representativeComplex": "도곡개포한신",
    "dataAsOf": "2026-06-05",
    "source": "정보몽땅(cleanup.seoul.go.kr)",
    "transactions": [],
    "geocoded": true
  },
  {
    "id": "seoul-11680-216",
    "name": "개포우성4차아파트 주택재건축정비사업조합",
    "sido": "서울",
    "sigungu": "강남구",
    "projectType": "재건축",
    "stage": "조합설립인가",
    "lat": 37.48556259916089,
    "lng": 127.04954418096798,
    "representativeAddress": "서울 강남구 도곡동 465",
    "representativeComplex": "개포우성4차",
    "dataAsOf": "2026-06-05",
    "source": "정보몽땅(cleanup.seoul.go.kr)",
    "transactions": [],
    "geocoded": true
  },
  {
    "id": "seoul-11680-217",
    "name": "도곡우성아파트 재건축정비사업 조합",
    "sido": "서울",
    "sigungu": "강남구",
    "projectType": "재건축",
    "stage": "조합설립인가",
    "lat": 37.488114467923154,
    "lng": 127.03715324109751,
    "representativeAddress": "서울 강남구 도곡동 934-10",
    "representativeComplex": "도곡우성",
    "dataAsOf": "2026-06-05",
    "source": "정보몽땅(cleanup.seoul.go.kr)",
    "transactions": [],
    "geocoded": true
  },
  {
    "id": "seoul-11680-218",
    "name": "압구정아파트지구 특별계획구역③ 재건축정비사업 조합",
    "sido": "서울",
    "sigungu": "강남구",
    "projectType": "재건축",
    "stage": "조합설립인가",
    "lat": 37.5327846836374,
    "lng": 127.02733718819265,
    "representativeAddress": "서울 강남구 압구정동 369-1",
    "representativeComplex": "압구정아파트지구특별계획구역③",
    "dataAsOf": "2026-06-05",
    "source": "정보몽땅(cleanup.seoul.go.kr)",
    "transactions": [],
    "geocoded": true
  },
  {
    "id": "seoul-11680-219",
    "name": "압구정아파트지구 특별계획구역② 재건축정비사업조합",
    "sido": "서울",
    "sigungu": "강남구",
    "projectType": "재건축",
    "stage": "조합설립인가",
    "lat": 37.52906691837889,
    "lng": 127.02457688294558,
    "representativeAddress": "서울 강남구 압구정동 434",
    "representativeComplex": "압구정아파트지구특별계획구역②",
    "dataAsOf": "2026-06-05",
    "source": "정보몽땅(cleanup.seoul.go.kr)",
    "transactions": [],
    "geocoded": true
  },
  {
    "id": "seoul-11680-220",
    "name": "압구정아파트지구 특별계획구역4",
    "sido": "서울",
    "sigungu": "강남구",
    "projectType": "재건축",
    "stage": "조합설립인가",
    "lat": 37.531014233173536,
    "lng": 127.0353556888117,
    "representativeAddress": "서울 강남구 압구정동 481",
    "representativeComplex": "압구정아파트지구특별계획구역4",
    "dataAsOf": "2026-06-05",
    "source": "정보몽땅(cleanup.seoul.go.kr)",
    "transactions": [],
    "geocoded": true
  },
  {
    "id": "seoul-11680-221",
    "name": "압구정아파트지구 특별계획구역5 재건축정비사업조합",
    "sido": "서울",
    "sigungu": "강남구",
    "projectType": "재건축",
    "stage": "조합설립인가",
    "lat": 37.530446301362915,
    "lng": 127.03875833236222,
    "representativeAddress": "서울 강남구 압구정동 490",
    "representativeComplex": "압구정아파트지구특별계획구역5",
    "dataAsOf": "2026-06-05",
    "source": "정보몽땅(cleanup.seoul.go.kr)",
    "transactions": [],
    "geocoded": true
  },
  {
    "id": "seoul-11680-222",
    "name": "압구정한양7차아파트 재건축정비사업조합",
    "sido": "서울",
    "sigungu": "강남구",
    "projectType": "재건축",
    "stage": "조합설립인가",
    "lat": 37.529108522598335,
    "lng": 127.04406087637507,
    "representativeAddress": "서울 강남구 압구정동 528",
    "representativeComplex": "압구정한양7차",
    "dataAsOf": "2026-06-05",
    "source": "정보몽땅(cleanup.seoul.go.kr)",
    "transactions": [],
    "geocoded": true
  },
  {
    "id": "seoul-11680-223",
    "name": "개포우성7차아파트 재건축정비사업조합",
    "sido": "서울",
    "sigungu": "강남구",
    "projectType": "재건축",
    "stage": "조합설립인가",
    "lat": 37.47501960862413,
    "lng": 127.06521957992999,
    "representativeAddress": "서울 강남구 일원동 615",
    "representativeComplex": "개포우성7차",
    "dataAsOf": "2026-06-05",
    "source": "정보몽땅(cleanup.seoul.go.kr)",
    "transactions": [],
    "geocoded": true
  },
  {
    "id": "seoul-11680-224",
    "name": "일원개포한신아파트 재건축정비사업조합",
    "sido": "서울",
    "sigungu": "강남구",
    "projectType": "재건축",
    "stage": "관리처분인가",
    "lat": 37.47317170870596,
    "lng": 127.06610392860264,
    "representativeAddress": "서울 강남구 일원동 615-1",
    "representativeComplex": "일원개포한신",
    "dataAsOf": "2026-06-05",
    "source": "정보몽땅(cleanup.seoul.go.kr)",
    "transactions": [],
    "geocoded": true
  },
  {
    "id": "seoul-11710-225",
    "name": "가락우성1차아파트 재건축정비사업 조합",
    "sido": "서울",
    "sigungu": "송파구",
    "projectType": "재건축",
    "stage": "조합설립인가",
    "lat": 37.49665182087144,
    "lng": 127.11758616008689,
    "representativeAddress": "서울 송파구 가락동 96-1",
    "representativeComplex": "가락우성1차",
    "dataAsOf": "2026-06-05",
    "source": "정보몽땅(cleanup.seoul.go.kr)",
    "transactions": [],
    "geocoded": true
  },
  {
    "id": "seoul-11710-226",
    "name": "가락미륭아파트 재건축정비사업조합",
    "sido": "서울",
    "sigungu": "송파구",
    "projectType": "재건축",
    "stage": "관리처분인가",
    "lat": 37.493726808738614,
    "lng": 127.1286868653075,
    "representativeAddress": "서울 송파구 가락동 138",
    "representativeComplex": "가락미륭",
    "dataAsOf": "2026-06-05",
    "source": "정보몽땅(cleanup.seoul.go.kr)",
    "transactions": [],
    "geocoded": true
  },
  {
    "id": "seoul-11710-227",
    "name": "삼환가락아파트 재건축정비사업 조합",
    "sido": "서울",
    "sigungu": "송파구",
    "projectType": "재건축",
    "stage": "관리처분인가",
    "lat": 37.49524381875163,
    "lng": 127.13648927290515,
    "representativeAddress": "서울 송파구 가락동 176",
    "representativeComplex": "삼환가락",
    "dataAsOf": "2026-06-05",
    "source": "정보몽땅(cleanup.seoul.go.kr)",
    "transactions": [],
    "geocoded": true
  },
  {
    "id": "seoul-11710-228",
    "name": "가락극동아파트 재건축사업 조합",
    "sido": "서울",
    "sigungu": "송파구",
    "projectType": "재건축",
    "stage": "조합설립인가",
    "lat": 37.495680534248955,
    "lng": 127.13268340040474,
    "representativeAddress": "서울 송파구 가락동 192",
    "representativeComplex": "가락극동",
    "dataAsOf": "2026-06-05",
    "source": "정보몽땅(cleanup.seoul.go.kr)",
    "transactions": [],
    "geocoded": true
  },
  {
    "id": "seoul-11710-229",
    "name": "가락프라자아파트 주택재건축정비사업조합",
    "sido": "서울",
    "sigungu": "송파구",
    "projectType": "재건축",
    "stage": "관리처분인가",
    "lat": 37.491970186911296,
    "lng": 127.13352096849187,
    "representativeAddress": "서울 송파구 가락동 199",
    "representativeComplex": "가락프라자",
    "dataAsOf": "2026-06-05",
    "source": "정보몽땅(cleanup.seoul.go.kr)",
    "transactions": [],
    "geocoded": true
  },
  {
    "id": "seoul-11710-230",
    "name": "거여새마을구역(LH)",
    "sido": "서울",
    "sigungu": "송파구",
    "projectType": "재개발",
    "stage": "사업시행인가",
    "lat": 37.49206075378298,
    "lng": 127.14844356486171,
    "representativeAddress": "서울 송파구 거여동 549",
    "representativeComplex": null,
    "dataAsOf": "2026-06-05",
    "source": "정보몽땅(cleanup.seoul.go.kr)",
    "transactions": [],
    "geocoded": true
  },
  {
    "id": "seoul-11710-231",
    "name": "마천1재정비촉진구역 주택재개발정비사업조합",
    "sido": "서울",
    "sigungu": "송파구",
    "projectType": "재개발",
    "stage": "조합설립인가",
    "lat": 37.498084547259076,
    "lng": 127.15346638550855,
    "representativeAddress": "서울 송파구 마천동 194-1",
    "representativeComplex": null,
    "dataAsOf": "2026-06-05",
    "source": "정보몽땅(cleanup.seoul.go.kr)",
    "transactions": [],
    "geocoded": true
  },
  {
    "id": "seoul-11710-232",
    "name": "마천3재정비촉진구역 주택재개발정비사업조합",
    "sido": "서울",
    "sigungu": "송파구",
    "projectType": "재개발",
    "stage": "조합설립인가",
    "lat": 37.493779329088724,
    "lng": 127.15609119039536,
    "representativeAddress": "서울 송파구 마천동 283",
    "representativeComplex": null,
    "dataAsOf": "2026-06-05",
    "source": "정보몽땅(cleanup.seoul.go.kr)",
    "transactions": [],
    "geocoded": true
  },
  {
    "id": "seoul-11710-233",
    "name": "마천4재정비촉진구역 주택재개발정비사업조합",
    "sido": "서울",
    "sigungu": "송파구",
    "projectType": "재개발",
    "stage": "관리처분인가",
    "lat": 37.49283699313737,
    "lng": 127.15393495043797,
    "representativeAddress": "서울 송파구 마천동 323",
    "representativeComplex": null,
    "dataAsOf": "2026-06-05",
    "source": "정보몽땅(cleanup.seoul.go.kr)",
    "transactions": [],
    "geocoded": true
  },