[
  {
    "id": "seoul-11110-0",
    "name": "내자동 도시환경정비사업 조합설립추진위원회",
    "sido": "서울",
    "sigungu": "종로구",
    "projectType": "재개발",
    "stage": "추진위원회",
    "lat": 37.575255818077004,
    "lng": 126.97140332280033,
    "representativeAddress": "서울 종로구 내자동 81",
    "representativeComplex": null,
    "dataAsOf": "2026-06-21",
    "source": "정보몽땅(cleanup.seoul.go.kr)",
    "transactions": [],
    "geocoded": true
  },
  {
    "id": "seoul-11110-1",
    "name": "사직제2구역 도시환경정비사업 조합",
    "sido": "서울",
    "sigungu": "종로구",
    "projectType": "재개발",
    "stage": "사업시행인가",
    "lat": 37.573667787777694,
    "lng": 126.96633589453909,
    "representativeAddress": "서울 종로구 사직동 311-10",
    "representativeComplex": null,
    "dataAsOf": "2026-06-21",
    "source": "정보몽땅(cleanup.seoul.go.kr)",
    "transactions": [],
    "geocoded": true
  },
  {
    "id": "seoul-11110-2",
    "name": "신문로 2-12구역 공공재개발 정비사업",
    "sido": "서울",
    "sigungu": "종로구",
    "projectType": "재개발",
    "stage": "추진위원회",
    "lat": 37.56969620906703,
    "lng": 126.9755205883782,
    "representativeAddress": "서울 종로구 신문로1가 158",
    "representativeComplex": null,
    "dataAsOf": "2026-06-21",
    "source": "정보몽땅(cleanup.seoul.go.kr)",
    "transactions": [],
    "geocoded": true
  },
  {
    "id": "seoul-11110-3",
    "name": "신영제1구역 주택재개발정비사업조합",
    "sido": "서울",
    "sigungu": "종로구",
    "projectType": "재개발",
    "stage": "이주·철거",
    "lat": 37.599989822404766,
    "lng": 126.9625165652796,
    "representativeAddress": "서울 종로구 신영동 158-2",
    "representativeComplex": null,
    "dataAsOf": "2026-06-21",
    "source": "정보몽땅(cleanup.seoul.go.kr)",
    "transactions": [],
    "geocoded": true
  },
  {
    "id": "seoul-11110-4",
    "name": "창신동 23일대 주택정비형 재개발구역",
    "sido": "서울",
    "sigungu": "종로구",
    "projectType": "재개발",
    "stage": "정비구역지정",
    "lat": 37.57684909654505,
    "lng": 127.01372650636168,
    "representativeAddress": "서울 종로구 창신동 23-2",
    "representativeComplex": null,
    "dataAsOf": "2026-06-21",
    "source": "정보몽땅(cleanup.seoul.go.kr)",
    "transactions": [],
    "geocoded": true
  },
  {
    "id": "seoul-11110-5",
    "name": "창신1-10구역 도시정비형 재개발사업 지정개발자(무궁화신탁)",
    "sido": "서울",
    "sigungu": "종로구",
    "projectType": "재개발",
    "stage": "사업시행자지정",
    "lat": 37.570567721498335,
    "lng": 127.01252014787204,
    "representativeAddress": "서울 종로구 창신동 427-7",
    "representativeComplex": null,
    "dataAsOf": "2026-06-21",
    "source": "정보몽땅(cleanup.seoul.go.kr)",
    "transactions": [],
    "geocoded": true
  },
  {
    "id": "seoul-11110-6",
    "name": "창신 1-6구역 도시정비형 재개발사업",
    "sido": "서울",
    "sigungu": "종로구",
    "projectType": "재개발",
    "stage": "사업시행자지정",
    "lat": 37.57135074263384,
    "lng": 127.01206016005915,
    "representativeAddress": "서울 종로구 창신동 459-12",
    "representativeComplex": null,
    "dataAsOf": "2026-06-21",
    "source": "정보몽땅(cleanup.seoul.go.kr)",
    "transactions": [],
    "geocoded": true
  },
  {
    "id": "seoul-11110-7",
    "name": "창신4구역 도시환경정비사업 조합설립추진위원회",
    "sido": "서울",
    "sigungu": "종로구",
    "projectType": "재개발",
    "stage": "추진위원회",
    "lat": 37.572366108982756,
    "lng": 127.01428324755992,
    "representativeAddress": "서울 종로구 창신동 330-1",
    "representativeComplex": null,
    "dataAsOf": "2026-06-21",
    "source": "정보몽땅(cleanup.seoul.go.kr)",
    "transactions": [],
    "geocoded": true
  },
  {
    "id": "seoul-11140-8",
    "name": "신당10구역주택재개발정비사업조합",
    "sido": "서울",
    "sigungu": "중구",
    "projectType": "재개발",
    "stage": "조합설립인가",
    "lat": 37.56427071260272,
    "lng": 127.01216913979769,
    "representativeAddress": "서울 중구 신당동 236-100",
    "representativeComplex": null,
    "dataAsOf": "2026-06-21",
    "source": "정보몽땅(cleanup.seoul.go.kr)",
    "transactions": [],
    "geocoded": true
  },
  {
    "id": "seoul-11140-9",
    "name": "신당제8구역 재개발정비사업조합",
    "sido": "서울",
    "sigungu": "중구",
    "projectType": "재개발",
    "stage": "관리처분인가",
    "lat": 37.55947623912863,
    "lng": 127.01479506678652,
    "representativeAddress": "서울 중구 신당동 321-1",
    "representativeComplex": null,
    "dataAsOf": "2026-06-21",
    "source": "정보몽땅(cleanup.seoul.go.kr)",
    "transactions": [],
    "geocoded": true
  },
  {
    "id": "seoul-11140-10",
    "name": "신당제9구역 주택재개발정비사업조합",
    "sido": "서울",
    "sigungu": "중구",
    "projectType": "재개발",
    "stage": "조합설립인가",
    "lat": 37.5501283097502,
    "lng": 127.00652276829237,
    "representativeAddress": "서울 중구 신당동 432-1008",
    "representativeComplex": null,
    "dataAsOf": "2026-06-21",
    "source": "정보몽땅(cleanup.seoul.go.kr)",
    "transactions": [],
    "geocoded": true
  },
  {
    "id": "seoul-11140-11",
    "name": "세운재정비촉진지구 6-1-3구역 도시정비형재개발사업",
    "sido": "서울",
    "sigungu": "중구",
    "projectType": "재개발",
    "stage": "추진위원회",
    "lat": 37.56563362966838,
    "lng": 126.99494662014635,
    "representativeAddress": "서울 중구 인현동1가 31",
    "representativeComplex": null,
    "dataAsOf": "2026-06-21",
    "source": "정보몽땅(cleanup.seoul.go.kr)",
    "transactions": [],
    "geocoded": true
  },
  {
    "id": "seoul-11140-12",
    "name": "마포로5-10구역도시환경정비사업조합설립추진위원회",
    "sido": "서울",
    "sigungu": "중구",
    "projectType": "재개발",
    "stage": "추진위원회",
    "lat": 37.55913535078581,
    "lng": 126.96484266180266,
    "representativeAddress": "서울 중구 중림동 186-1",
    "representativeComplex": null,
    "dataAsOf": "2026-06-21",
    "source": "정보몽땅(cleanup.seoul.go.kr)",
    "transactions": [],
    "geocoded": true
  },
  {
    "id": "seoul-11140-13",
    "name": "중림동 398번지 일대 재개발정비사업조합",
    "sido": "서울",
    "sigungu": "중구",
    "projectType": "재개발",
    "stage": "조합설립인가",
    "lat": 37.56046405577515,
    "lng": 126.96781529226737,
    "representativeAddress": "서울 중구 중림동 398",
    "representativeComplex": null,
    "dataAsOf": "2026-06-21",
    "source": "정보몽땅(cleanup.seoul.go.kr)",
    "transactions": [],
    "geocoded": true
  },
  {
    "id": "seoul-11170-14",
    "name": "숙대입구역세권 장기전세주택 도시정비형 재개발사업",
    "sido": "서울",
    "sigungu": "용산구",
    "projectType": "재개발",
    "stage": "사업시행자지정",
    "lat": 37.54582233621204,
    "lng": 126.97411350694082,
    "representativeAddress": "서울 용산구 갈월동 52-6",
    "representativeComplex": null,
    "dataAsOf": "2026-06-21",
    "source": "정보몽땅(cleanup.seoul.go.kr)",
    "transactions": [],
    "geocoded": true
  },
  {
    "id": "seoul-11170-15",
    "name": "남영동 업무지구 제2구역 도시정비형 재개발사업 조합",
    "sido": "서울",
    "sigungu": "용산구",
    "projectType": "재개발",
    "stage": "조합설립인가",
    "lat": 37.54275654380628,
    "lng": 126.97200290060229,
    "representativeAddress": "서울 용산구 갈월동 92",
    "representativeComplex": null,
    "dataAsOf": "2026-06-21",
    "source": "정보몽땅(cleanup.seoul.go.kr)",
    "transactions": [],
    "geocoded": true
  },
  {
    "id": "seoul-11170-16",
    "name": "한남5재정비촉진구역 주택재개발정비사업 조합",
    "sido": "서울",
    "sigungu": "용산구",
    "projectType": "재개발",
    "stage": "조합설립인가",
    "lat": 37.522469072752884,
    "lng": 126.99623725349312,
    "representativeAddress": "서울 용산구 동빙고동 60",
    "representativeComplex": null,
    "dataAsOf": "2026-06-21",
    "source": "정보몽땅(cleanup.seoul.go.kr)",
    "transactions": [],
    "geocoded": true
  },
  {
    "id": "seoul-11170-17",
    "name": "한남4재정비촉진구역 주택재개발정비사업 조합",
    "sido": "서울",
    "sigungu": "용산구",
    "projectType": "재개발",
    "stage": "사업시행인가",
    "lat": 37.5268068910203,
    "lng": 126.99821786888981,
    "representativeAddress": "서울 용산구 보광동 360",
    "representativeComplex": null,
    "dataAsOf": "2026-06-21",
    "source": "정보몽땅(cleanup.seoul.go.kr)",
    "transactions": [],
    "geocoded": true
  },
  {
    "id": "seoul-11170-18",
    "name": "한남2재정비촉진구역 주택재개발정비사업 조합",
    "sido": "서울",
    "sigungu": "용산구",
    "projectType": "재개발",
    "stage": "관리처분인가",
    "lat": 37.531290394413105,
    "lng": 126.99711219627386,
    "representativeAddress": "서울 용산구 보광동 272-3",
    "representativeComplex": null,
    "dataAsOf": "2026-06-21",
    "source": "정보몽땅(cleanup.seoul.go.kr)",
    "transactions": [],
    "geocoded": true
  },
  {
    "id": "seoul-11170-19",
    "name": "서계 통합구역 주택정비형재개발 사업(신속통합기획)",
    "sido": "서울",
    "sigungu": "용산구",
    "projectType": "재개발",
    "stage": "추진위원회",
    "lat": 37.55109130314585,
    "lng": 126.96707176231861,
    "representativeAddress": "서울 용산구 서계동 33-5",
    "representativeComplex": null,
    "dataAsOf": "2026-06-21",
    "source": "정보몽땅(cleanup.seoul.go.kr)",
    "transactions": [],
    "geocoded": true
  },
  {
    "id": "seoul-11170-20",
    "name": "신동아아파트재건축정비사업조합",
    "sido": "서울",
    "sigungu": "용산구",
    "projectType": "재건축",
    "stage": "조합설립인가",
    "lat": 37.51802612953167,
    "lng": 126.98758044830478,
    "representativeAddress": "서울 용산구 서빙고동 241-21",
    "representativeComplex": "신동아",
    "dataAsOf": "2026-06-21",
    "source": "정보몽땅(cleanup.seoul.go.kr)",
    "transactions": [],
    "geocoded": true
  },
  {
    "id": "seoul-11170-21",
    "name": "원효로1가 역세권 장기전세주택 도시정비형 재개발사업",
    "sido": "서울",
    "sigungu": "용산구",
    "projectType": "재개발",
    "stage": "추진위원회",
    "lat": 37.54015232137402,
    "lng": 126.96626422003891,
    "representativeAddress": "서울 용산구 원효로1가 82-1",
    "representativeComplex": null,
    "dataAsOf": "2026-06-21",
    "source": "정보몽땅(cleanup.seoul.go.kr)",
    "transactions": [],
    "geocoded": true
  },
  {
    "id": "seoul-11170-22",
    "name": "산호아파트 주택재건축 정비사업조합",
    "sido": "서울",
    "sigungu": "용산구",
    "projectType": "재건축",
    "stage": "사업시행인가",
    "lat": 37.53274873589357,
    "lng": 126.95055071413961,
    "representativeAddress": "서울 용산구 원효로4가 118-16",
    "representativeComplex": "산호",
    "dataAsOf": "2026-06-21",
    "source": "정보몽땅(cleanup.seoul.go.kr)",
    "transactions": [],
    "geocoded": true
  },
  {
    "id": "seoul-11170-23",
    "name": "강변강서아파트 주택재건축 정비사업조합",
    "sido": "서울",
    "sigungu": "용산구",
    "projectType": "재건축",
    "stage": "조합설립인가",
    "lat": 37.52351234683344,
    "lng": 126.95928111242088,
    "representativeAddress": "서울 용산구 이촌동 193-3",
    "representativeComplex": "강변강서",
    "dataAsOf": "2026-06-21",
    "source": "정보몽땅(cleanup.seoul.go.kr)",
    "transactions": [],
    "geocoded": true
  },
  {
    "id": "seoul-11170-24",
    "name": "이촌동제1구역 주택재건축정비사업 조합설립추진위원회",
    "sido": "서울",
    "sigungu": "용산구",
    "projectType": "재건축",
    "stage": "추진위원회",
    "lat": 37.525919492252136,
    "lng": 126.95522978450192,
    "representativeAddress": "서울 용산구 이촌동 203-75",
    "representativeComplex": "이촌동제1구역",
    "dataAsOf": "2026-06-21",
    "source": "정보몽땅(cleanup.seoul.go.kr)",
    "transactions": [],
    "geocoded": true
  },
  {
    "id": "seoul-11170-25",
    "name": "중산아파트 주택재건축정비사업 조합설립추진위원회",
    "sido": "서울",
    "sigungu": "용산구",
    "projectType": "재건축",
    "stage": "추진위원회",
    "lat": 37.52973439943478,
    "lng": 126.95329213523627,
    "representativeAddress": "서울 용산구 이촌동 211-2",
    "representativeComplex": "중산",
    "dataAsOf": "2026-06-21",
    "source": "정보몽땅(cleanup.seoul.go.kr)",
    "transactions": [],
    "geocoded": true
  },
  {
    "id": "seoul-11170-26",
    "name": "왕궁아파트 주택재건축 정비사업조합",
    "sido": "서울",
    "sigungu": "용산구",
    "projectType": "재건축",
    "stage": "조합설립인가",
    "lat": 37.517151828004394,
    "lng": 126.97824975879008,
    "representativeAddress": "서울 용산구 이촌동 300-11",
    "representativeComplex": "왕궁",
    "dataAsOf": "2026-06-21",
    "source": "정보몽땅(cleanup.seoul.go.kr)",
    "transactions": [],
    "geocoded": true
  },
  {
    "id": "seoul-11170-27",
    "name": "한강맨션아파트 주택재건축 조합",
    "sido": "서울",
    "sigungu": "용산구",
    "projectType": "재건축",
    "stage": "관리처분인가",
    "lat": 37.51933302457112,
    "lng": 126.9750177956202,
    "representativeAddress": "서울 용산구 이촌동 300-23",
    "representativeComplex": "한강맨션",
    "dataAsOf": "2026-06-21",
    "source": "정보몽땅(cleanup.seoul.go.kr)",
    "transactions": [],
    "geocoded": true
  },
  {
    "id": "seoul-11170-28",
    "name": "한강삼익아파트 주택재건축정비사업 조합",
    "sido": "서울",
    "sigungu": "용산구",
    "projectType": "재건축",
    "stage": "사업시행인가",
    "lat": 37.51853788785034,
    "lng": 126.97607648741408,
    "representativeAddress": "서울 용산구 이촌동 300-301",
    "representativeComplex": "한강삼익",
    "dataAsOf": "2026-06-21",
    "source": "정보몽땅(cleanup.seoul.go.kr)",
    "transactions": [],
    "geocoded": true
  },
  {
    "id": "seoul-11170-29",
    "name": "청화아파트주택재건축정비사업조합설립추진위원회",
    "sido": "서울",
    "sigungu": "용산구",
    "projectType": "재건축",
    "stage": "추진위원회",
    "lat": 37.53004417907956,
    "lng": 126.99496051380623,
    "representativeAddress": "서울 용산구 이태원동 22-2",
    "representativeComplex": "청화",
    "dataAsOf": "2026-06-21",
    "source": "정보몽땅(cleanup.seoul.go.kr)",
    "transactions": [],
    "geocoded": true
  },
  {
    "id": "seoul-11170-30",
    "name": "서울역세권(청파동1가 46번지 일대) 도시정비형 재개발정비사업",
    "sido": "서울",
    "sigungu": "용산구",
    "projectType": "재개발",
    "stage": "추진위원회",
    "lat": 37.54964823536132,
    "lng": 126.96941803820786,
    "representativeAddress": "서울 용산구 청파동1가 46",
    "representativeComplex": null,
    "dataAsOf": "2026-06-21",
    "source": "정보몽땅(cleanup.seoul.go.kr)",
    "transactions": [],
    "geocoded": true
  },
  {
    "id": "seoul-11170-31",
    "name": "청파제2구역주택재개발정비사업 (신속통합기획)",
    "sido": "서울",
    "sigungu": "용산구",
    "projectType": "재개발",
    "stage": "추진위원회",
    "lat": 37.548408994355285,
    "lng": 126.96723975898315,
    "representativeAddress": "서울 용산구 청파동1가 89-18",
    "representativeComplex": null,
    "dataAsOf": "2026-06-21",
    "source": "정보몽땅(cleanup.seoul.go.kr)",
    "transactions": [],
    "geocoded": true
  },
  {
    "id": "seoul-11170-32",
    "name": "청파제1구역 재개발정비사업조합",
    "sido": "서울",
    "sigungu": "용산구",
    "projectType": "재개발",
    "stage": "조합설립인가",
    "lat": 37.546851134138976,
    "lng": 126.9687549772197,
    "representativeAddress": "서울 용산구 청파동2가 11-1",
    "representativeComplex": null,
    "dataAsOf": "2026-06-21",
    "source": "정보몽땅(cleanup.seoul.go.kr)",
    "transactions": [],
    "geocoded": true
  },
  {
    "id": "seoul-11170-33",
    "name": "한강로구역 도시환경정비사업조합",
    "sido": "서울",
    "sigungu": "용산구",
    "projectType": "재개발",
    "stage": "조합설립인가",
    "lat": 37.53402295795246,
    "lng": 126.97416946393011,
    "representativeAddress": "서울 용산구 한강로1가 158",
    "representativeComplex": null,
    "dataAsOf": "2026-06-21",
    "source": "정보몽땅(cleanup.seoul.go.kr)",
    "transactions": [],
    "geocoded": true
  },
  {
    "id": "seoul-11170-34",
    "name": "한강로1가 도시정비형 재개발정비사업",
    "sido": "서울",
    "sigungu": "용산구",
    "projectType": "재개발",
    "stage": "추진위원회",
    "lat": 37.53303519344925,
    "lng": 126.97263277405744,
    "representativeAddress": "서울 용산구 한강로1가 231-30",
    "representativeComplex": null,
    "dataAsOf": "2026-06-21",
    "source": "정보몽땅(cleanup.seoul.go.kr)",
    "transactions": [],
    "geocoded": true
  },
  {
    "id": "seoul-11170-35",
    "name": "신용산역북측 제1구역 도시환경정비사업조합",
    "sido": "서울",
    "sigungu": "용산구",
    "projectType": "재개발",
    "stage": "사업시행인가",
    "lat": 37.53298319181268,
    "lng": 126.97012703715907,
    "representativeAddress": "서울 용산구 한강로2가 2-116",
    "representativeComplex": null,
    "dataAsOf": "2026-06-21",
    "source": "정보몽땅(cleanup.seoul.go.kr)",
    "transactions": [],
    "geocoded": true
  },
  {
    "id": "seoul-11170-36",
    "name": "신용산역북측제2구역 도시정비형재개발정비사업조합",
    "sido": "서울",
    "sigungu": "용산구",
    "projectType": "재개발",
    "stage": "사업시행인가",
    "lat": 37.53106165063261,
    "lng": 126.96862766165712,
    "representativeAddress": "서울 용산구 한강로2가 2-138",
    "representativeComplex": null,
    "dataAsOf": "2026-06-21",
    "source": "정보몽땅(cleanup.seoul.go.kr)",
    "transactions": [],
    "geocoded": true
  },
  {
    "id": "seoul-11170-37",
    "name": "정비창전면 제3구역 도시정비형 재개발 정비사업 조합",
    "sido": "서울",
    "sigungu": "용산구",
    "projectType": "재개발",
    "stage": "조합설립인가",
    "lat": 37.523779464191634,
    "lng": 126.96216064537778,
    "representativeAddress": "서울 용산구 한강로3가 40-19",
    "representativeComplex": null,
    "dataAsOf": "2026-06-21",
    "source": "정보몽땅(cleanup.seoul.go.kr)",
    "transactions": [],
    "geocoded": true
  },
  {
    "id": "seoul-11170-38",
    "name": "정비창전면 제1구역 재개발 정비사업조합",
    "sido": "서울",
    "sigungu": "용산구",
    "projectType": "재개발",
    "stage": "조합설립인가",
    "lat": 37.5254302907081,
    "lng": 126.96292290795995,
    "representativeAddress": "서울 용산구 한강로3가 40-641",
    "representativeComplex": null,
    "dataAsOf": "2026-06-21",
    "source": "정보몽땅(cleanup.seoul.go.kr)",
    "transactions": [],
    "geocoded": true
  },
  {
    "id": "seoul-11170-39",
    "name": "용산역전면 제1-2구역 재개발사업 조합설립추진위원회",
    "sido": "서울",
    "sigungu": "용산구",
    "projectType": "재개발",
    "stage": "추진위원회",
    "lat": 37.528186846789765,
    "lng": 126.9639827889315,
    "representativeAddress": "서울 용산구 한강로3가 40-712",
    "representativeComplex": null,
    "dataAsOf": "2026-06-21",
    "source": "정보몽땅(cleanup.seoul.go.kr)",
    "transactions": [],
    "geocoded": true
  },
  {
    "id": "seoul-11170-40",
    "name": "한양철우아파트 주택재건축 정비사업조합",
    "sido": "서울",
    "sigungu": "용산구",
    "projectType": "재건축",
    "stage": "조합설립인가",
    "lat": 37.523549725341596,
    "lng": 126.96910862431832,
    "representativeAddress": "서울 용산구 한강로3가 65-500",
    "representativeComplex": "한양철우",
    "dataAsOf": "2026-06-21",
    "source": "정보몽땅(cleanup.seoul.go.kr)",
    "transactions": [],
    "geocoded": true
  },
  {
    "id": "seoul-11170-41",
    "name": "한남 제3재정비촉진구역 주택재개발정비사업 조합",
    "sido": "서울",
    "sigungu": "용산구",
    "projectType": "재개발",
    "stage": "이주·철거",
    "lat": 37.53445946209294,
    "lng": 126.99984711808804,
    "representativeAddress": "서울 용산구 한남동 686",
    "representativeComplex": null,
    "dataAsOf": "2026-06-21",
    "source": "정보몽땅(cleanup.seoul.go.kr)",
    "transactions": [],
    "geocoded": true
  },
  {
    "id": "seoul-11170-42",
    "name": "효창공원앞역역세권 도시정비형 재개발정비사업",
    "sido": "서울",
    "sigungu": "용산구",
    "projectType": "재개발",
    "stage": "추진위원회",
    "lat": 37.54151279977374,
    "lng": 126.95926683582104,
    "representativeAddress": "서울 용산구 효창동 5-307",
    "representativeComplex": null,
    "dataAsOf": "2026-06-21",
    "source": "정보몽땅(cleanup.seoul.go.kr)",
    "transactions": [],
    "geocoded": true
  },
  {
    "id": "seoul-11170-43",
    "name": "동후암1구역 주택재개발정비사업 조합설립추진위원회",
    "sido": "서울",
    "sigungu": "용산구",
    "projectType": "재개발",
    "stage": "추진위원회",
    "lat": 37.552708192928236,
    "lng": 126.97873309356704,
    "representativeAddress": "서울 용산구 후암동 30-2",
    "representativeComplex": null,
    "dataAsOf": "2026-06-21",
    "source": "정보몽땅(cleanup.seoul.go.kr)",
    "transactions": [],
    "geocoded": true
  },
  {
    "id": "seoul-11170-44",
    "name": "후암동제1구역 주택재건축정비사업 조합설립추진위원회",
    "sido": "서울",
    "sigungu": "용산구",
    "projectType": "재건축",
    "stage": "추진위원회",
    "lat": 37.54871855432019,
    "lng": 126.97469636245674,
    "representativeAddress": "서울 용산구 후암동 142-4",
    "representativeComplex": "후암동제1구역",
    "dataAsOf": "2026-06-21",
    "source": "정보몽땅(cleanup.seoul.go.kr)",
    "transactions": [],
    "geocoded": true
  },
  {
    "id": "seoul-11200-45",
    "name": "금호제16구역주택재개발정비사업조합",
    "sido": "서울",
    "sigungu": "성동구",
    "projectType": "재개발",
    "stage": "관리처분인가",
    "lat": 37.55142286056496,
    "lng": 127.01811956095437,
    "representativeAddress": "서울 성동구 금호동2가 501-31",
    "representativeComplex": null,
    "dataAsOf": "2026-06-21",
    "source": "정보몽땅(cleanup.seoul.go.kr)",
    "transactions": [],
    "geocoded": true
  },
  {
    "id": "seoul-11200-46",
    "name": "금호21구역 주택재개발정비사업",
    "sido": "서울",
    "sigungu": "성동구",
    "projectType": "재개발",
    "stage": "조합설립인가",
    "lat": 37.55035249319988,
    "lng": 127.02439158237694,
    "representativeAddress": "서울 성동구 금호동3가 1",
    "representativeComplex": null,
    "dataAsOf": "2026-06-21",
    "source": "정보몽땅(cleanup.seoul.go.kr)",
    "transactions": [],
    "geocoded": true
  },
  {
    "id": "seoul-11200-47",
    "name": "마장동382번지 일대 재개발정비사업",
    "sido": "서울",
    "sigungu": "성동구",
    "projectType": "재개발",
    "stage": "추진위원회",
    "lat": 37.56334497790158,
    "lng": 127.04510450552354,
    "representativeAddress": "서울 성동구 마장동 382",
    "representativeComplex": null,
    "dataAsOf": "2026-06-21",
    "source": "정보몽땅(cleanup.seoul.go.kr)",
    "transactions": [],
    "geocoded": true
  },
  {
    "id": "seoul-11200-48",
    "name": "마장세림아파트 주택재건축사업",
    "sido": "서울",
    "sigungu": "성동구",
    "projectType": "재건축",
    "stage": "조합설립인가",
    "lat": 37.564977178679655,
    "lng": 127.04493346186192,
    "representativeAddress": "서울 성동구 마장동 784",
    "representativeComplex": "마장세림",
    "dataAsOf": "2026-06-21",
    "source": "정보몽땅(cleanup.seoul.go.kr)",
    "transactions": [],
    "geocoded": true
  },
  {
    "id": "seoul-11200-49",
    "name": "경동연립 재건축정비사업 조합설립추진위원회",
    "sido": "서울",
    "sigungu": "성동구",
    "projectType": "재건축",
    "stage": "추진위원회",
    "lat": 37.54404949700165,
    "lng": 127.04892533652463,
    "representativeAddress": "서울 성동구 성수동1가 22-13",
    "representativeComplex": "경동연립",
    "dataAsOf": "2026-06-21",
    "source": "정보몽땅(cleanup.seoul.go.kr)",
    "transactions": [],
    "geocoded": true
  },
  {
    "id": "seoul-11200-50",
    "name": "장미아파트 주택재건축정비사업 조합설립추진위원회",
    "sido": "서울",
    "sigungu": "성동구",
    "projectType": "재건축",
    "stage": "추진위원회",
    "lat": 37.54296703774182,
    "lng": 127.04613449466623,
    "representativeAddress": "서울 성동구 성수동1가 656-421",
    "representativeComplex": "장미",
    "dataAsOf": "2026-06-21",
    "source": "정보몽땅(cleanup.seoul.go.kr)",
    "transactions": [],
    "geocoded": true
  },
  {
    "id": "seoul-11200-51",
    "name": "성수제1구역주택재건축정비사업조합",
    "sido": "서울",
    "sigungu": "성동구",
    "projectType": "재건축",
    "stage": "조합설립인가",
    "lat": 37.54969326522519,
    "lng": 127.0454208010209,
    "representativeAddress": "서울 성동구 성수동1가 656-1267",
    "representativeComplex": "성수제1구역",
    "dataAsOf": "2026-06-21",
    "source": "정보몽땅(cleanup.seoul.go.kr)",
    "transactions": [],
    "geocoded": true
  },
  {
    "id": "seoul-11200-52",
    "name": "성수전략정비구역 제1 주택정비형 재개발정비사업조합",
    "sido": "서울",
    "sigungu": "성동구",
    "projectType": "재개발",
    "stage": "조합설립인가",
    "lat": 37.53989550021201,
    "lng": 127.04923496685412,
    "representativeAddress": "서울 성동구 성수동1가 72-10",
    "representativeComplex": null,
    "dataAsOf": "2026-06-21",
    "source": "정보몽땅(cleanup.seoul.go.kr)",
    "transactions": [],
    "geocoded": true
  },
  {
    "id": "seoul-11200-53",
    "name": "성수전략정비구역 제4지구 주택재개발정비사업조합",
    "sido": "서울",
    "sigungu": "성동구",
    "projectType": "재개발",
    "stage": "조합설립인가",
    "lat": 37.53626442123337,
    "lng": 127.05832067694925,
    "representativeAddress": "서울 성동구 성수동2가 219-4",
    "representativeComplex": null,
    "dataAsOf": "2026-06-21",
    "source": "정보몽땅(cleanup.seoul.go.kr)",
    "transactions": [],
    "geocoded": true
  },
  {
    "id": "seoul-11200-54",
    "name": "성수전략정비구역 제2 주택정비형 재개발정비사업조합",
    "sido": "서울",
    "sigungu": "성동구",
    "projectType": "재개발",
    "stage": "조합설립인가",
    "lat": 37.53771986665137,
    "lng": 127.05275596943792,
    "representativeAddress": "서울 성동구 성수동2가 506",
    "representativeComplex": null,
    "dataAsOf": "2026-06-21",
    "source": "정보몽땅(cleanup.seoul.go.kr)",
    "transactions": [],
    "geocoded": true
  },
  {
    "id": "seoul-11200-55",
    "name": "성수전략정비구역 제3 주택정비형 재개발정비사업조합",
    "sido": "서울",
    "sigungu": "성동구",
    "projectType": "재개발",
    "stage": "조합설립인가",
    "lat": 37.537154159549985,
    "lng": 127.05678406175497,
    "representativeAddress": "서울 성동구 성수동2가 572-7",
    "representativeComplex": null,
    "dataAsOf": "2026-06-21",
    "source": "정보몽땅(cleanup.seoul.go.kr)",
    "transactions": [],
    "geocoded": true
  },
  {
    "id": "seoul-11200-56",
    "name": "한남하이츠아파트 주택재건축정비사업조합",
    "sido": "서울",
    "sigungu": "성동구",
    "projectType": "재건축",
    "stage": "사업시행인가",
    "lat": 37.53951524375235,
    "lng": 127.01433171733659,
    "representativeAddress": "서울 성동구 옥수동 220-1",
    "representativeComplex": "한남하이츠",
    "dataAsOf": "2026-06-21",
    "source": "정보몽땅(cleanup.seoul.go.kr)",
    "transactions": [],
    "geocoded": true
  },
  {
    "id": "seoul-11200-57",
    "name": "장안평 중고차매매센터 도시정비형 재개발정비사업조합",
    "sido": "서울",
    "sigungu": "성동구",
    "projectType": "재개발",
    "stage": "조합설립인가",
    "lat": 37.56021221718872,
    "lng": 127.06623911778468,
    "representativeAddress": "서울 성동구 용답동 234",
    "representativeComplex": null,
    "dataAsOf": "2026-06-21",
    "source": "정보몽땅(cleanup.seoul.go.kr)",
    "transactions": [],
    "geocoded": true
  },
  {
    "id": "seoul-11200-58",
    "name": "응봉1 주택재건축정비사업 조합",
    "sido": "서울",
    "sigungu": "성동구",
    "projectType": "재건축",
    "stage": "관리처분인가",
    "lat": 37.5490889280146,
    "lng": 127.03145386761703,
    "representativeAddress": "서울 성동구 응봉동 193-162",
    "representativeComplex": "응봉1",
    "dataAsOf": "2026-06-21",
    "source": "정보몽땅(cleanup.seoul.go.kr)",
    "transactions": [],
    "geocoded": true
  },
  {
    "id": "seoul-11200-59",
    "name": "행당동248번지 일대 역세권활성화사업 도시정비형 재개발사업",
    "sido": "서울",
    "sigungu": "성동구",
    "projectType": "재개발",
    "stage": "추진위원회",
    "lat": 37.55973777226573,
    "lng": 127.03628339344755,
    "representativeAddress": "서울 성동구 행당동 248",
    "representativeComplex": null,
    "dataAsOf": "2026-06-21",
    "source": "정보몽땅(cleanup.seoul.go.kr)",
    "transactions": [],
    "geocoded": true
  },
  {
    "id": "seoul-11215-60",
    "name": "워커힐아파트1단지 재건축정비사업 조합설립추진위원회",
    "sido": "서울",
    "sigungu": "광진구",
    "projectType": "재건축",
    "stage": "추진위원회",
    "lat": 37.55047271588656,
    "lng": 127.10663252734597,
    "representativeAddress": "서울 광진구 광장동 145-8",
    "representativeComplex": "워커힐아파트1단지",
    "dataAsOf": "2026-06-21",
    "source": "정보몽땅(cleanup.seoul.go.kr)",
    "transactions": [],
    "geocoded": true
  },
  {
    "id": "seoul-11215-61",
    "name": "광장극동아파트 재건축사업 (신속통합기획)",
    "sido": "서울",
    "sigungu": "광진구",
    "projectType": "재건축",
    "stage": "정비구역지정",
    "lat": 37.54315985367403,
    "lng": 127.10403899507813,
    "representativeAddress": "서울 광진구 광장동 218-1",
    "representativeComplex": "광장극동",
    "dataAsOf": "2026-06-21",
    "source": "정보몽땅(cleanup.seoul.go.kr)",
    "transactions": [],
    "geocoded": true
  },
  {
    "id": "seoul-11215-62",
    "name": "자양제7구역 주택재건축정비사업 조합",
    "sido": "서울",
    "sigungu": "광진구",
    "projectType": "재건축",
    "stage": "조합설립인가",
    "lat": 37.53227719332391,
    "lng": 127.0734675015863,
    "representativeAddress": "서울 광진구 자양동 464-40",
    "representativeComplex": "자양제7구역",
    "dataAsOf": "2026-06-21",
    "source": "정보몽땅(cleanup.seoul.go.kr)",
    "transactions": [],
    "geocoded": true
  },
  {
    "id": "seoul-11215-63",
    "name": "자양한양아파트 재건축정비사업",
    "sido": "서울",
    "sigungu": "광진구",
    "projectType": "재건축",
    "stage": "추진위원회",
    "lat": 37.531261261731125,
    "lng": 127.09106421574644,
    "representativeAddress": "서울 광진구 자양동 695",
    "representativeComplex": "자양한양",
    "dataAsOf": "2026-06-21",
    "source": "정보몽땅(cleanup.seoul.go.kr)",
    "transactions": [],
    "geocoded": true
  },
  {
    "id": "seoul-11215-64",
    "name": "신향빌라 재건축사업",
    "sido": "서울",
    "sigungu": "광진구",
    "projectType": "재건축",
    "stage": "조합설립인가",
    "lat": 37.56623538127677,
    "lng": 127.08744673980289,
    "representativeAddress": "서울 광진구 중곡동 18-24",
    "representativeComplex": "신향빌라",
    "dataAsOf": "2026-06-21",
    "source": "정보몽땅(cleanup.seoul.go.kr)",
    "transactions": [],
    "geocoded": true
  },
  {
    "id": "seoul-11215-65",
    "name": "중곡아파트 주택재건축정비사업조합",
    "sido": "서울",
    "sigungu": "광진구",
    "projectType": "재건축",
    "stage": "조합설립인가",
    "lat": 37.5668405170168,
    "lng": 127.07844856562569,
    "representativeAddress": "서울 광진구 중곡동 190-26",
    "representativeComplex": "중곡",
    "dataAsOf": "2026-06-21",
    "source": "정보몽땅(cleanup.seoul.go.kr)",
    "transactions": [],
    "geocoded": true
  },
  {
    "id": "seoul-11230-66",
    "name": "답십리자동차부품상가 도시정비형 재개발정비사업조합",
    "sido": "서울",
    "sigungu": "동대문구",
    "projectType": "재개발",
    "stage": "사업시행인가",
    "lat": 37.565999542586916,
    "lng": 127.05980472596204,
    "representativeAddress": "서울 동대문구 답십리동 952",
    "representativeComplex": null,
    "dataAsOf": "2026-06-21",
    "source": "정보몽땅(cleanup.seoul.go.kr)",
    "transactions": [],
    "geocoded": true
  },
  {
    "id": "seoul-11230-67",
    "name": "신설동역세권 장기전세주택 도시정비형 재개발사업",
    "sido": "서울",
    "sigungu": "동대문구",
    "projectType": "재개발",
    "stage": "추진위원회",
    "lat": 37.57793158028976,
    "lng": 127.0265524052843,
    "representativeAddress": "서울 동대문구 신설동 91-1",
    "representativeComplex": null,
    "dataAsOf": "2026-06-21",
    "source": "정보몽땅(cleanup.seoul.go.kr)",
    "transactions": [],
    "geocoded": true
  },
  {
    "id": "seoul-11230-68",
    "name": "신설제1구역 공공재개발정비사업",
    "sido": "서울",
    "sigungu": "동대문구",
    "projectType": "재개발",
    "stage": "사업시행인가",
    "lat": 37.576141354413735,
    "lng": 127.02706811603434,
    "representativeAddress": "서울 동대문구 신설동 92-5",
    "representativeComplex": null,
    "dataAsOf": "2026-06-21",
    "source": "정보몽땅(cleanup.seoul.go.kr)",
    "transactions": [],
    "geocoded": true
  },
  {
    "id": "seoul-11230-69",
    "name": "용두1구역(6지구) 공공재개발사업",
    "sido": "서울",
    "sigungu": "동대문구",
    "projectType": "재개발",
    "stage": "조합설립인가",
    "lat": 37.57845528245639,
    "lng": 127.04044566301323,
    "representativeAddress": "서울 동대문구 용두동 14-1",
    "representativeComplex": null,
    "dataAsOf": "2026-06-21",
    "source": "정보몽땅(cleanup.seoul.go.kr)",
    "transactions": [],
    "geocoded": true
  },
  {
    "id": "seoul-11230-70",
    "name": "용두1도시환경정비구역 제5지구 재개발정비사업조합",
    "sido": "서울",
    "sigungu": "동대문구",
    "projectType": "재개발",
    "stage": "조합설립인가",
    "lat": 37.57832751245636,
    "lng": 127.04024551961112,
    "representativeAddress": "서울 동대문구 용두동 23-1",
    "representativeComplex": null,
    "dataAsOf": "2026-06-21",
    "source": "정보몽땅(cleanup.seoul.go.kr)",
    "transactions": [],
    "geocoded": true
  },
  {
    "id": "seoul-11230-71",
    "name": "용두1구역(4지구) 도시정비형재개발사업(지정개발자방식)",
    "sido": "서울",
    "sigungu": "동대문구",
    "projectType": "재개발",
    "stage": "사업시행인가",
    "lat": 37.57707860355839,
    "lng": 127.03926848980144,
    "representativeAddress": "서울 동대문구 용두동 26-3",
    "representativeComplex": null,
    "dataAsOf": "2026-06-21",
    "source": "정보몽땅(cleanup.seoul.go.kr)",
    "transactions": [],
    "geocoded": true
  },
  {
    "id": "seoul-11230-72",
    "name": "용두동 39-361번지 일대 주택정비형 재개발사업",
    "sido": "서울",
    "sigungu": "동대문구",
    "projectType": "재개발",
    "stage": "추진위원회",
    "lat": 37.576023888635476,
    "lng": 127.04376227460067,
    "representativeAddress": "서울 동대문구 용두동 39-361",
    "representativeComplex": null,
    "dataAsOf": "2026-06-21",
    "source": "정보몽땅(cleanup.seoul.go.kr)",
    "transactions": [],
    "geocoded": true
  },
  {
    "id": "seoul-11230-73",
    "name": "용두제7구역 도시환경정비사업 조합설립추진위원회",
    "sido": "서울",
    "sigungu": "동대문구",
    "projectType": "재개발",
    "stage": "추진위원회",
    "lat": 37.57698272196118,
    "lng": 127.03684416385181,
    "representativeAddress": "서울 동대문구 용두동 53-6",
    "representativeComplex": null,
    "dataAsOf": "2026-06-21",
    "source": "정보몽땅(cleanup.seoul.go.kr)",
    "transactions": [],
    "geocoded": true
  },
  {
    "id": "seoul-11230-74",
    "name": "이문4재정비촉진구역 주택재개발정비사업조합",
    "sido": "서울",
    "sigungu": "동대문구",
    "projectType": "재개발",
    "stage": "관리처분인가",
    "lat": 37.59676627548252,
    "lng": 127.06649570847634,
    "representativeAddress": "서울 동대문구 이문동 86-1",
    "representativeComplex": null,
    "dataAsOf": "2026-06-21",
    "source": "정보몽땅(cleanup.seoul.go.kr)",
    "transactions": [],
    "geocoded": true
  },
  {
    "id": "seoul-11230-75",
    "name": "신이문역세권 장기전세주택 도시정비형 재개발사업",
    "sido": "서울",
    "sigungu": "동대문구",
    "projectType": "재개발",
    "stage": "사업시행자지정",
    "lat": 37.6015952894717,
    "lng": 127.0668238708711,
    "representativeAddress": "서울 동대문구 이문동 168-1",
    "representativeComplex": null,
    "dataAsOf": "2026-06-21",
    "source": "정보몽땅(cleanup.seoul.go.kr)",
    "transactions": [],
    "geocoded": true
  },
  {
    "id": "seoul-11230-76",
    "name": "장안동 현대아파트 재건축정비사업조합",
    "sido": "서울",
    "sigungu": "동대문구",
    "projectType": "재건축",
    "stage": "사업시행인가",
    "lat": 37.581148488851554,
    "lng": 127.06912073021238,
    "representativeAddress": "서울 동대문구 장안동 95-1",
    "representativeComplex": "장안동현대",
    "dataAsOf": "2026-06-21",
    "source": "정보몽땅(cleanup.seoul.go.kr)",
    "transactions": [],
    "geocoded": true
  },
  {
    "id": "seoul-11230-77",
    "name": "장안1구역 주택정비형 재개발사업",
    "sido": "서울",
    "sigungu": "동대문구",
    "projectType": "재개발",
    "stage": "추진위원회",
    "lat": 37.57446951649509,
    "lng": 127.06890814592617,
    "representativeAddress": "서울 동대문구 장안동 134-15",
    "representativeComplex": null,
    "dataAsOf": "2026-06-21",
    "source": "정보몽땅(cleanup.seoul.go.kr)",
    "transactions": [],
    "geocoded": true
  },
  {
    "id": "seoul-11230-78",
    "name": "전농제9구역 공공재개발정비사업 주민대표회의",
    "sido": "서울",
    "sigungu": "동대문구",
    "projectType": "재개발",
    "stage": "조합설립인가",
    "lat": 37.58355925959735,
    "lng": 127.0514079724702,
    "representativeAddress": "서울 동대문구 전농동 103-236",
    "representativeComplex": null,
    "dataAsOf": "2026-06-21",
    "source": "정보몽땅(cleanup.seoul.go.kr)",
    "transactions": [],
    "geocoded": true
  },
  {
    "id": "seoul-11230-79",
    "name": "전농8구역주택재개발정비사업조합",
    "sido": "서울",
    "sigungu": "동대문구",
    "projectType": "재개발",
    "stage": "조합설립인가",
    "lat": 37.57861194700034,
    "lng": 127.05613609212791,
    "representativeAddress": "서울 동대문구 전농동 204",
    "representativeComplex": null,
    "dataAsOf": "2026-06-21",
    "source": "정보몽땅(cleanup.seoul.go.kr)",
    "transactions": [],
    "geocoded": true
  },
  {
    "id": "seoul-11230-80",
    "name": "전농13구역 도시정비형 재개발사업 조합",
    "sido": "서울",
    "sigungu": "동대문구",
    "projectType": "재개발",
    "stage": "정비구역지정",
    "lat": 37.578338224844984,
    "lng": 127.05775532721313,
    "representativeAddress": "서울 동대문구 전농동 295",
    "representativeComplex": null,
    "dataAsOf": "2026-06-21",
    "source": "정보몽땅(cleanup.seoul.go.kr)",
    "transactions": [],
    "geocoded": true
  },
  {
    "id": "seoul-11230-81",
    "name": "전농도시환경정비사업조합",
    "sido": "서울",
    "sigungu": "동대문구",
    "projectType": "재개발",
    "stage": "사업시행인가",
    "lat": 37.577051473364214,
    "lng": 127.04776460117381,
    "representativeAddress": "서울 동대문구 전농동 494",
    "representativeComplex": null,
    "dataAsOf": "2026-06-21",
    "source": "정보몽땅(cleanup.seoul.go.kr)",
    "transactions": [],
    "geocoded": true
  },
  {
    "id": "seoul-11230-82",
    "name": "전농제12구역 재개발정비사업조합",
    "sido": "서울",
    "sigungu": "동대문구",
    "projectType": "재개발",
    "stage": "조합설립인가",
    "lat": 37.57666298930262,
    "lng": 127.04592189080081,
    "representativeAddress": "서울 동대문구 전농동 643",
    "representativeComplex": null,
    "dataAsOf": "2026-06-21",
    "source": "정보몽땅(cleanup.seoul.go.kr)",
    "transactions": [],
    "geocoded": true
  },
  {
    "id": "seoul-11230-83",
    "name": "제기제6구역주택재개발정비사업조합",
    "sido": "서울",
    "sigungu": "동대문구",
    "projectType": "재개발",
    "stage": "관리처분인가",
    "lat": 37.58733917175441,
    "lng": 127.0393218548,
    "representativeAddress": "서울 동대문구 제기동 120-104",
    "representativeComplex": null,
    "dataAsOf": "2026-06-21",
    "source": "정보몽땅(cleanup.seoul.go.kr)",
    "transactions": [],
    "geocoded": true
  },
  {
    "id": "seoul-11230-84",
    "name": "제기제4구역 주택재개발정비사업조합",
    "sido": "서울",
    "sigungu": "동대문구",
    "projectType": "재개발",
    "stage": "이주·철거",
    "lat": 37.58508539857033,
    "lng": 127.0420484846874,
    "representativeAddress": "서울 동대문구 제기동 288",
    "representativeComplex": null,
    "dataAsOf": "2026-06-21",
    "source": "정보몽땅(cleanup.seoul.go.kr)",
    "transactions": [],
    "geocoded": true
  },
  {
    "id": "seoul-11230-85",
    "name": "청량리제9구역 주택정비형 재개발사업",
    "sido": "서울",
    "sigungu": "동대문구",
    "projectType": "재개발",
    "stage": "추진위원회",
    "lat": 37.586876479778915,
    "lng": 127.05134009793875,
    "representativeAddress": "서울 동대문구 청량리동 19",
    "representativeComplex": null,
    "dataAsOf": "2026-06-21",
    "source": "정보몽땅(cleanup.seoul.go.kr)",
    "transactions": [],
    "geocoded": true
  },
  {
    "id": "seoul-11230-86",
    "name": "청량리제6구역주택재개발정비사업조합",
    "sido": "서울",
    "sigungu": "동대문구",
    "projectType": "재개발",
    "stage": "사업시행인가",
    "lat": 37.5896560419842,
    "lng": 127.04298876672246,
    "representativeAddress": "서울 동대문구 청량리동 205",
    "representativeComplex": null,
    "dataAsOf": "2026-06-21",
    "source": "정보몽땅(cleanup.seoul.go.kr)",
    "transactions": [],
    "geocoded": true
  },
  {
    "id": "seoul-11230-87",
    "name": "청량리미주아파트 주택재건축정비사업",
    "sido": "서울",
    "sigungu": "동대문구",
    "projectType": "재건축",
    "stage": "조합설립인가",
    "lat": 37.584001920253556,
    "lng": 127.04676602733603,
    "representativeAddress": "서울 동대문구 청량리동 235-1",
    "representativeComplex": "청량리미주",
    "dataAsOf": "2026-06-21",
    "source": "정보몽땅(cleanup.seoul.go.kr)",
    "transactions": [],
    "geocoded": true
  },
  {
    "id": "seoul-11230-88",
    "name": "청량리제8구역 주택재개발정비사업조합",
    "sido": "서울",
    "sigungu": "동대문구",
    "projectType": "재개발",
    "stage": "관리처분인가",
    "lat": 37.58544116750191,
    "lng": 127.0445473882713,
    "representativeAddress": "서울 동대문구 청량리동 435",
    "representativeComplex": null,
    "dataAsOf": "2026-06-21",
    "source": "정보몽땅(cleanup.seoul.go.kr)",
    "transactions": [],
    "geocoded": true
  },
  {
    "id": "seoul-11230-89",
    "name": "휘경제5 주택정비형 재개발구역",
    "sido": "서울",
    "sigungu": "동대문구",
    "projectType": "재개발",
    "stage": "추진위원회",
    "lat": 37.585335898863654,
    "lng": 127.06696423104097,
    "representativeAddress": "서울 동대문구 휘경동 43-188",
    "representativeComplex": null,
    "dataAsOf": "2026-06-21",
    "source": "정보몽땅(cleanup.seoul.go.kr)",
    "transactions": [],
    "geocoded": true
  },
  {
    "id": "seoul-11260-90",
    "name": "망우1구역 공공재건축정비사업조합",
    "sido": "서울",
    "sigungu": "중랑구",
    "projectType": "재건축",
    "stage": "조합설립인가",
    "lat": 37.60272136866178,
    "lng": 127.10635335299443,
    "representativeAddress": "서울 중랑구 망우동 178-1",
    "representativeComplex": "망우1구역공공",
    "dataAsOf": "2026-06-21",
    "source": "정보몽땅(cleanup.seoul.go.kr)",
    "transactions": [],
    "geocoded": true
  },
  {
    "id": "seoul-11260-91",
    "name": "상봉13구역 재개발정비사업 조합설립추진위원회",
    "sido": "서울",
    "sigungu": "중랑구",
    "projectType": "재개발",
    "stage": "추진위원회",
    "lat": 37.595728193053304,
    "lng": 127.099404374621,
    "representativeAddress": "서울 중랑구 망우동 461",
    "representativeComplex": null,
    "dataAsOf": "2026-06-21",
    "source": "정보몽땅(cleanup.seoul.go.kr)",
    "transactions": [],
    "geocoded": true
  },
  {
    "id": "seoul-11260-92",
    "name": "면목7구역 주택정비형 재개발사업",
    "sido": "서울",
    "sigungu": "중랑구",
    "projectType": "재개발",
    "stage": "조합설립인가",
    "lat": 37.587096492577786,
    "lng": 127.09288633491497,
    "representativeAddress": "서울 중랑구 면목동 69-14",
    "representativeComplex": null,
    "dataAsOf": "2026-06-21",
    "source": "정보몽땅(cleanup.seoul.go.kr)",
    "transactions": [],
    "geocoded": true
  },
  {
    "id": "seoul-11260-93",
    "name": "면목동172-1번지일대 주택재건축정비사업 조합설립추진위원회",
    "sido": "서울",
    "sigungu": "중랑구",
    "projectType": "재건축",
    "stage": "추진위원회",
    "lat": 37.58472847677346,
    "lng": 127.07952792402423,
    "representativeAddress": "서울 중랑구 면목동 172-1",
    "representativeComplex": "면목동172-1번지일대",
    "dataAsOf": "2026-06-21",
    "source": "정보몽땅(cleanup.seoul.go.kr)",
    "transactions": [],
    "geocoded": true
  },
  {
    "id": "seoul-11260-94",
    "name": "면목8구역 민간재개발정비사업",
    "sido": "서울",
    "sigungu": "중랑구",
    "projectType": "재개발",
    "stage": "추진위원회",
    "lat": 37.58472847677346,
    "lng": 127.07952792402423,
    "representativeAddress": "서울 중랑구 면목동 172-1",
    "representativeComplex": null,
    "dataAsOf": "2026-06-21",
    "source": "정보몽땅(cleanup.seoul.go.kr)",
    "transactions": [],
    "geocoded": true
  },
  {
    "id": "seoul-11260-95",
    "name": "면목10구역 민간재개발정비사업",
    "sido": "서울",
    "sigungu": "중랑구",
    "projectType": "재개발",
    "stage": "추진위원회",
    "lat": 37.58597427105152,
    "lng": 127.07792750224962,
    "representativeAddress": "서울 중랑구 면목동 174-1",
    "representativeComplex": null,
    "dataAsOf": "2026-06-21",
    "source": "정보몽땅(cleanup.seoul.go.kr)",
    "transactions": [],
    "geocoded": true
  },
  {
    "id": "seoul-11260-96",
    "name": "면목9구역 공공재개발정비사업",
    "sido": "서울",
    "sigungu": "중랑구",
    "projectType": "재개발",
    "stage": "조합설립인가",
    "lat": 37.57918788365265,
    "lng": 127.0929234632265,
    "representativeAddress": "서울 중랑구 면목동 527",
    "representativeComplex": null,
    "dataAsOf": "2026-06-21",
    "source": "정보몽땅(cleanup.seoul.go.kr)",
    "transactions": [],
    "geocoded": true
  },
  {
    "id": "seoul-11260-97",
    "name": "상봉10재정비촉진구역 도시정비형 재개발사업",
    "sido": "서울",
    "sigungu": "중랑구",
    "projectType": "재개발",
    "stage": "추진위원회",
    "lat": 37.599326885098435,
    "lng": 127.09387201306694,
    "representativeAddress": "서울 중랑구 상봉동 50-1",
    "representativeComplex": null,
    "dataAsOf": "2026-06-21",
    "source": "정보몽땅(cleanup.seoul.go.kr)",
    "transactions": [],
    "geocoded": true
  },
  {
    "id": "seoul-11260-98",
    "name": "상봉7재정비촉진구역 도시환경정비사업조합",
    "sido": "서울",
    "sigungu": "중랑구",
    "projectType": "재개발",
    "stage": "사업시행인가",
    "lat": 37.59585666238762,
    "lng": 127.09037200592414,
    "representativeAddress": "서울 중랑구 상봉동 88",
    "representativeComplex": null,
    "dataAsOf": "2026-06-21",
    "source": "정보몽땅(cleanup.seoul.go.kr)",
    "transactions": [],
    "geocoded": true
  },
  {
    "id": "seoul-11260-99",
    "name": "상봉6재정비촉진구역 도시환경정비사업 조합설립추진위원회",
    "sido": "서울",
    "sigungu": "중랑구",
    "projectType": "재개발",
    "stage": "추진위원회",
    "lat": 37.59413709965365,
    "lng": 127.08688445062184,
    "representativeAddress": "서울 중랑구 상봉동 107-1",
    "representativeComplex": null,
    "dataAsOf": "2026-06-21",
    "source": "정보몽땅(cleanup.seoul.go.kr)",
    "transactions": [],
    "geocoded": true
  },
  {
    "id": "seoul-11260-100",
    "name": "신일빌라 소규모재건축정비사업조합",
    "sido": "서울",
    "sigungu": "중랑구",
    "projectType": "재건축",
    "stage": "이주·철거",
    "lat": 37.60279885954021,
    "lng": 127.09743218830121,
    "representativeAddress": "서울 중랑구 신내동 482-1",
    "representativeComplex": "신일빌라소규모",
    "dataAsOf": "2026-06-21",
    "source": "정보몽땅(cleanup.seoul.go.kr)",
    "transactions": [],
    "geocoded": true
  },
  {
    "id": "seoul-11260-101",
    "name": "중화5구역 공공재개발정비사업",
    "sido": "서울",
    "sigungu": "중랑구",
    "projectType": "재개발",
    "stage": "조합설립인가",
    "lat": 37.60160508106574,
    "lng": 127.08499227768024,
    "representativeAddress": "서울 중랑구 중화동 122",
    "representativeComplex": null,
    "dataAsOf": "2026-06-21",
    "source": "정보몽땅(cleanup.seoul.go.kr)",
    "transactions": [],
    "geocoded": true
  },
  {
    "id": "seoul-11260-102",
    "name": "중화동131-35번지일대 주택재건축정비사업 조합설립추진위원회",
    "sido": "서울",
    "sigungu": "중랑구",
    "projectType": "재건축",
    "stage": "추진위원회",
    "lat": 37.600812812734894,
    "lng": 127.08575951634218,
    "representativeAddress": "서울 중랑구 중화동 131-35",
    "representativeComplex": "중화동131-35번지일대",
    "dataAsOf": "2026-06-21",
    "source": "정보몽땅(cleanup.seoul.go.kr)",
    "transactions": [],
    "geocoded": true
  },
  {
    "id": "seoul-11260-103",
    "name": "중화우성타운 재건축정비사업",
    "sido": "서울",
    "sigungu": "중랑구",
    "projectType": "재건축",
    "stage": "사업시행자지정",
    "lat": 37.59803242025384,
    "lng": 127.08125723683654,
    "representativeAddress": "서울 중랑구 중화동 195-2",
    "representativeComplex": "중화우성타운",
    "dataAsOf": "2026-06-21",
    "source": "정보몽땅(cleanup.seoul.go.kr)",
    "transactions": [],
    "geocoded": true
  },
  {
    "id": "seoul-11260-104",
    "name": "중화동324번지일대 주택재건축정비사업 조합설립추진위원회",
    "sido": "서울",
    "sigungu": "중랑구",
    "projectType": "재건축",
    "stage": "추진위원회",
    "lat": 37.59564366827466,
    "lng": 127.0719852202754,
    "representativeAddress": "서울 중랑구 중화동 324",
    "representativeComplex": "중화동324번지일대",
    "dataAsOf": "2026-06-21",
    "source": "정보몽땅(cleanup.seoul.go.kr)",
    "transactions": [],
    "geocoded": true
  },
  {
    "id": "seoul-11260-105",
    "name": "중화2재정비촉진구역 주택재개발정비사업",
    "sido": "서울",
    "sigungu": "중랑구",
    "projectType": "재개발",
    "stage": "정비구역지정",
    "lat": 37.60027391333409,
    "lng": 127.07578934210599,
    "representativeAddress": "서울 중랑구 중화동 329-38",
    "representativeComplex": null,
    "dataAsOf": "2026-06-21",
    "source": "정보몽땅(cleanup.seoul.go.kr)",
    "transactions": [],
    "geocoded": true
  },
  {
    "id": "seoul-11290-106",
    "name": "신길음1구역 재개발정비사업 조합",
    "sido": "서울",
    "sigungu": "성북구",
    "projectType": "재개발",
    "stage": "조합설립인가",
    "lat": 37.61195125277642,
    "lng": 127.02992998772731,
    "representativeAddress": "서울 성북구 길음동 31-1",
    "representativeComplex": null,
    "dataAsOf": "2026-06-21",
    "source": "정보몽땅(cleanup.seoul.go.kr)",
    "transactions": [],
    "geocoded": true
  },
  {
    "id": "seoul-11290-107",
    "name": "돈암6구역 주택재개발정비사업조합",
    "sido": "서울",
    "sigungu": "성북구",
    "projectType": "재개발",
    "stage": "사업시행인가",
    "lat": 37.59925140166513,
    "lng": 127.02089350062437,
    "representativeAddress": "서울 성북구 돈암동 48-29",
    "representativeComplex": null,
    "dataAsOf": "2026-06-21",
    "source": "정보몽땅(cleanup.seoul.go.kr)",
    "transactions": [],
    "geocoded": true
  },
  {
    "id": "seoul-11290-108",
    "name": "동선제2구역 주택재개발정비사업조합",
    "sido": "서울",
    "sigungu": "성북구",
    "projectType": "재개발",
    "stage": "관리처분인가",
    "lat": 37.596333023846455,
    "lng": 127.01998774142686,
    "representativeAddress": "서울 성북구 동선동4가 304-2",
    "representativeComplex": null,
    "dataAsOf": "2026-06-21",
    "source": "정보몽땅(cleanup.seoul.go.kr)",
    "transactions": [],
    "geocoded": true
  },
  {
    "id": "seoul-11290-109",
    "name": "동소문제2구역 주택재개발정비사업조합",
    "sido": "서울",
    "sigungu": "성북구",
    "projectType": "재개발",
    "stage": "조합설립인가",
    "lat": 37.5883678321904,
    "lng": 127.00711375147074,
    "representativeAddress": "서울 성북구 동소문동2가 33",
    "representativeComplex": null,
    "dataAsOf": "2026-06-21",
    "source": "정보몽땅(cleanup.seoul.go.kr)",
    "transactions": [],
    "geocoded": true
  },
  {
    "id": "seoul-11290-110",
    "name": "석관4구역 주택정비형 재개발사업",
    "sido": "서울",
    "sigungu": "성북구",
    "projectType": "재개발",
    "stage": "추진위원회",
    "lat": 37.60789694668239,
    "lng": 127.0636311106015,
    "representativeAddress": "서울 성북구 석관동 62-1",
    "representativeComplex": null,
    "dataAsOf": "2026-06-21",
    "source": "정보몽땅(cleanup.seoul.go.kr)",
    "transactions": [],
    "geocoded": true
  },
  {
    "id": "seoul-11290-111",
    "name": "성북1구역 공공재개발 정비사업 주민대표회의",
    "sido": "서울",
    "sigungu": "성북구",
    "projectType": "재개발",
    "stage": "조합설립인가",
    "lat": 37.59103277710978,
    "lng": 127.00521727350505,
    "representativeAddress": "서울 성북구 성북동 179-68",
    "representativeComplex": null,
    "dataAsOf": "2026-06-21",
    "source": "정보몽땅(cleanup.seoul.go.kr)",
    "transactions": [],
    "geocoded": true
  },
  {
    "id": "seoul-11290-112",
    "name": "성북제2구역 주택재개발정비사업 조합",
    "sido": "서울",
    "sigungu": "성북구",
    "projectType": "재개발",
    "stage": "사업시행인가",
    "lat": 37.594093410921374,
    "lng": 126.99135344926754,
    "representativeAddress": "서울 성북구 성북동 226",
    "representativeComplex": null,
    "dataAsOf": "2026-06-21",
    "source": "정보몽땅(cleanup.seoul.go.kr)",
    "transactions": [],
    "geocoded": true
  },
  {
    "id": "seoul-11290-113",
    "name": "안암제1구역 주택재건축정비사업조합",
    "sido": "서울",
    "sigungu": "성북구",
    "projectType": "재건축",
    "stage": "조합설립인가",
    "lat": 37.58240359137808,
    "lng": 127.02510703591443,
    "representativeAddress": "서울 성북구 안암동3가 136-1",
    "representativeComplex": "안암제1구역",
    "dataAsOf": "2026-06-21",
    "source": "정보몽땅(cleanup.seoul.go.kr)",
    "transactions": [],
    "geocoded": true
  },
  {
    "id": "seoul-11290-114",
    "name": "돌곶이·상월곡역세권 장기전세주택 도시정비형재개발",
    "sido": "서울",
    "sigungu": "성북구",
    "projectType": "재개발",
    "stage": "추진위원회",
    "lat": 37.61042094576514,
    "lng": 127.05197146006853,
    "representativeAddress": "서울 성북구 장위동 66-300",
    "representativeComplex": null,
    "dataAsOf": "2026-06-21",
    "source": "정보몽땅(cleanup.seoul.go.kr)",
    "transactions": [],
    "geocoded": true
  },
  {
    "id": "seoul-11290-115",
    "name": "장위10구역 주택재개발정비사업조합",
    "sido": "서울",
    "sigungu": "성북구",
    "projectType": "재개발",
    "stage": "관리처분인가",
    "lat": 37.61229204924848,
    "lng": 127.05301992447482,
    "representativeAddress": "서울 성북구 장위동 68-37",
    "representativeComplex": null,
    "dataAsOf": "2026-06-21",
    "source": "정보몽땅(cleanup.seoul.go.kr)",
    "transactions": [],
    "geocoded": true
  },
  {
    "id": "seoul-11290-116",
    "name": "장위8구역 공공재개발정비사업",
    "sido": "서울",
    "sigungu": "성북구",
    "projectType": "재개발",
    "stage": "조합설립인가",
    "lat": 37.616525801021076,
    "lng": 127.05484826559615,
    "representativeAddress": "서울 성북구 장위동 85",
    "representativeComplex": null,
    "dataAsOf": "2026-06-21",
    "source": "정보몽땅(cleanup.seoul.go.kr)",
    "transactions": [],
    "geocoded": true
  },
  {
    "id": "seoul-11290-117",
    "name": "장위15구역 주택재개발정비사업조합",
    "sido": "서울",
    "sigungu": "성북구",
    "projectType": "재개발",
    "stage": "조합설립인가",
    "lat": 37.61212937633244,
    "lng": 127.04828328699327,
    "representativeAddress": "서울 성북구 장위동 233-42",
    "representativeComplex": null,
    "dataAsOf": "2026-06-21",
    "source": "정보몽땅(cleanup.seoul.go.kr)",
    "transactions": [],
    "geocoded": true
  },
  {
    "id": "seoul-11290-118",
    "name": "장위14구역 주택재개발정비사업조합",
    "sido": "서울",
    "sigungu": "성북구",
    "projectType": "재개발",
    "stage": "조합설립인가",
    "lat": 37.612625310210376,
    "lng": 127.04363248879116,
    "representativeAddress": "서울 성북구 장위동 233-552",
    "representativeComplex": null,
    "dataAsOf": "2026-06-21",
    "source": "정보몽땅(cleanup.seoul.go.kr)",
    "transactions": [],
    "geocoded": true
  },
  {
    "id": "seoul-11290-119",
    "name": "장위9구역 공공재개발사업",
    "sido": "서울",
    "sigungu": "성북구",
    "projectType": "재개발",
    "stage": "조합설립인가",
    "lat": 37.61412673280419,
    "lng": 127.05041789480649,
    "representativeAddress": "서울 성북구 장위동 238-83",
    "representativeComplex": null,
    "dataAsOf": "2026-06-21",
    "source": "정보몽땅(cleanup.seoul.go.kr)",
    "transactions": [],
    "geocoded": true
  },
  {
    "id": "seoul-11290-120",
    "name": "장위3구역 주택재개발정비사업 조합",
    "sido": "서울",
    "sigungu": "성북구",
    "projectType": "재개발",
    "stage": "추진위원회",
    "lat": 37.60923144718792,
    "lng": 127.00498429355281,
    "representativeAddress": "서울 성북구 장위동 350",
    "representativeComplex": null,
    "dataAsOf": "2026-06-21",
    "source": "정보몽땅(cleanup.seoul.go.kr)",
    "transactions": [],
    "geocoded": false
  },
  {
    "id": "seoul-11290-121",
    "name": "길음5재정비촉진구역 주택재개발정비사업 조합",
    "sido": "서울",
    "sigungu": "성북구",
    "projectType": "재개발",
    "stage": "조합설립인가",
    "lat": 37.6043188648119,
    "lng": 127.0158673887111,
    "representativeAddress": "서울 성북구 정릉동 175",
    "representativeComplex": null,
    "dataAsOf": "2026-06-21",
    "source": "정보몽땅(cleanup.seoul.go.kr)",
    "transactions": [],
    "geocoded": true
  },
  {
    "id": "seoul-11290-122",
    "name": "정릉7 주택재건축정비사업 조합",
    "sido": "서울",
    "sigungu": "성북구",
    "projectType": "재건축",
    "stage": "사업시행인가",
    "lat": 37.60148630816022,
    "lng": 127.00834486371826,
    "representativeAddress": "서울 성북구 정릉동 506-159",
    "representativeComplex": "정릉7",
    "dataAsOf": "2026-06-21",
    "source": "정보몽땅(cleanup.seoul.go.kr)",
    "transactions": [],
    "geocoded": true
  },
  {
    "id": "seoul-11290-123",
    "name": "정릉골구역 주택재개발정비사업조합",
    "sido": "서울",
    "sigungu": "성북구",
    "projectType": "재개발",
    "stage": "관리처분인가",
    "lat": 37.61414972806185,
    "lng": 127.00271499097727,
    "representativeAddress": "서울 성북구 정릉동 757",
    "representativeComplex": null,
    "dataAsOf": "2026-06-21",
    "source": "정보몽땅(cleanup.seoul.go.kr)",
    "transactions": [],
    "geocoded": true
  },
  {
    "id": "seoul-11290-124",
    "name": "정릉제3구역주택재개발정비사업 조합설립추진위원회",
    "sido": "서울",
    "sigungu": "성북구",
    "projectType": "재개발",
    "stage": "추진위원회",
    "lat": 37.60765447558616,
    "lng": 126.99973183273168,
    "representativeAddress": "서울 성북구 정릉동 894",
    "representativeComplex": null,
    "dataAsOf": "2026-06-21",
    "source": "정보몽땅(cleanup.seoul.go.kr)",
    "transactions": [],
    "geocoded": true
  },
  {
    "id": "seoul-11290-125",
    "name": "종암8구역 주택정비형 재개발사업",
    "sido": "서울",
    "sigungu": "성북구",
    "projectType": "재개발",
    "stage": "추진위원회",
    "lat": 37.597183335913485,
    "lng": 127.03990319646768,
    "representativeAddress": "서울 성북구 종암동 3-10",
    "representativeComplex": null,
    "dataAsOf": "2026-06-21",
    "source": "정보몽땅(cleanup.seoul.go.kr)",
    "transactions": [],
    "geocoded": true
  },
  {
    "id": "seoul-11290-126",
    "name": "종암9구역 주택정비형 재개발사업",
    "sido": "서울",
    "sigungu": "성북구",
    "projectType": "재개발",
    "stage": "추진위원회",
    "lat": 37.5986940140136,
    "lng": 127.02852842601465,
    "representativeAddress": "서울 성북구 종암동 125-35",
    "representativeComplex": null,
    "dataAsOf": "2026-06-21",
    "source": "정보몽땅(cleanup.seoul.go.kr)",
    "transactions": [],
    "geocoded": true
  },
  {
    "id": "seoul-11290-127",
    "name": "하월곡1구역 주택정비형 재개발사업",
    "sido": "서울",
    "sigungu": "성북구",
    "projectType": "재개발",
    "stage": "추진위원회",
    "lat": 37.60726661544875,
    "lng": 127.0352525859403,
    "representativeAddress": "서울 성북구 하월곡동 70-1",
    "representativeComplex": null,
    "dataAsOf": "2026-06-21",
    "source": "정보몽땅(cleanup.seoul.go.kr)",
    "transactions": [],
    "geocoded": true
  },
  {
    "id": "seoul-11290-128",
    "name": "신월곡1구역 도시환경정비사업조합",
    "sido": "서울",
    "sigungu": "성북구",
    "projectType": "재개발",
    "stage": "관리처분인가",
    "lat": 37.6055413367107,
    "lng": 127.02895348404255,
    "representativeAddress": "서울 성북구 하월곡동 88-142",
    "representativeComplex": null,
    "dataAsOf": "2026-06-21",
    "source": "정보몽땅(cleanup.seoul.go.kr)",
    "transactions": [],
    "geocoded": true
  },
  {
    "id": "seoul-11305-129",
    "name": "미아제16구역 주택재개발사업 조합설립추진위원회",
    "sido": "서울",
    "sigungu": "강북구",
    "projectType": "재개발",
    "stage": "추진위원회",
    "lat": 37.61359349183141,
    "lng": 127.03526109910092,
    "representativeAddress": "서울 강북구 미아동 6",
    "representativeComplex": null,
    "dataAsOf": "2026-06-21",
    "source": "정보몽땅(cleanup.seoul.go.kr)",
    "transactions": [],
    "geocoded": true
  },
  {
    "id": "seoul-11305-130",
    "name": "미아제4-1구역 주택재건축정비사업 조합",
    "sido": "서울",
    "sigungu": "강북구",
    "projectType": "재건축",
    "stage": "조합설립인가",
    "lat": 37.615510137829936,
    "lng": 127.03891568219473,
    "representativeAddress": "서울 강북구 미아동 8-373",
    "representativeComplex": "미아제4-1구역",
    "dataAsOf": "2026-06-21",
    "source": "정보몽땅(cleanup.seoul.go.kr)",
    "transactions": [],
    "geocoded": true
  },
  {
    "id": "seoul-11305-131",
    "name": "미아중심재정비촉진지구 강북2재정비촉진구역 도시환경정비사업조합",
    "sido": "서울",
    "sigungu": "강북구",
    "projectType": "재개발",
    "stage": "조합설립인가",
    "lat": 37.610590449158636,
    "lng": 127.03073109779118,
    "representativeAddress": "서울 강북구 미아동 42-8",
    "representativeComplex": null,
    "dataAsOf": "2026-06-21",
    "source": "정보몽땅(cleanup.seoul.go.kr)",
    "transactions": [],
    "geocoded": true
  },
  {
    "id": "seoul-11305-132",
    "name": "강북3구역 도시환경정비사업 조합설립추진위원회",
    "sido": "서울",
    "sigungu": "강북구",
    "projectType": "재개발",
    "stage": "추진위원회",
    "lat": 37.611093640924764,
    "lng": 127.03221331176064,
    "representativeAddress": "서울 강북구 미아동 45-32",
    "representativeComplex": null,
    "dataAsOf": "2026-06-21",
    "source": "정보몽땅(cleanup.seoul.go.kr)",
    "transactions": [],
    "geocoded": true
  },
  {
    "id": "seoul-11305-133",
    "name": "미아중심재정비촉진지구 강북3 재정비촉진구역",
    "sido": "서울",
    "sigungu": "강북구",
    "projectType": "재개발",
    "stage": "관리처분인가",
    "lat": 37.611093640924764,
    "lng": 127.03221331176064,
    "representativeAddress": "서울 강북구 미아동 45-32",
    "representativeComplex": null,
    "dataAsOf": "2026-06-21",
    "source": "정보몽땅(cleanup.seoul.go.kr)",
    "transactions": [],
    "geocoded": true
  },
  {
    "id": "seoul-11305-134",
    "name": "강북5구역 공공재개발사업",
    "sido": "서울",
    "sigungu": "강북구",
    "projectType": "재개발",
    "stage": "조합설립인가",
    "lat": 37.61438049174874,
    "lng": 127.02948094726779,
    "representativeAddress": "서울 강북구 미아동 61-79",
    "representativeComplex": null,
    "dataAsOf": "2026-06-21",
    "source": "정보몽땅(cleanup.seoul.go.kr)",
    "transactions": [],
    "geocoded": true
  },
  {
    "id": "seoul-11305-135",
    "name": "강북5구역 도시환경정비사업 조합설립추진위원회",
    "sido": "서울",
    "sigungu": "강북구",
    "projectType": "재개발",
    "stage": "추진위원회",
    "lat": 37.61438049174874,
    "lng": 127.02948094726779,
    "representativeAddress": "서울 강북구 미아동 61-79",
    "representativeComplex": null,
    "dataAsOf": "2026-06-21",
    "source": "정보몽땅(cleanup.seoul.go.kr)",
    "transactions": [],
    "geocoded": true
  },
  {
    "id": "seoul-11305-136",
    "name": "미아제9-2구역 주택재건축정비사업 조합",
    "sido": "서울",
    "sigungu": "강북구",
    "projectType": "재건축",
    "stage": "사업시행인가",
    "lat": 37.619286857675995,
    "lng": 127.03042077876833,
    "representativeAddress": "서울 강북구 미아동 137-72",
    "representativeComplex": "미아제9-2구역",
    "dataAsOf": "2026-06-21",
    "source": "정보몽땅(cleanup.seoul.go.kr)",
    "transactions": [],
    "geocoded": true
  },
  {
    "id": "seoul-11305-137",
    "name": "미아동 258번지 일대 주택정비형 재개발사업",
    "sido": "서울",
    "sigungu": "강북구",
    "projectType": "재개발",
    "stage": "추진위원회",
    "lat": 37.626972939876346,
    "lng": 127.03208828796019,
    "representativeAddress": "서울 강북구 미아동 258",
    "representativeComplex": null,
    "dataAsOf": "2026-06-21",
    "source": "정보몽땅(cleanup.seoul.go.kr)",
    "transactions": [],
    "geocoded": true
  },
  {
    "id": "seoul-11305-138",
    "name": "미아2재정비촉진구역 주택재개발정비사업 조합",
    "sido": "서울",
    "sigungu": "강북구",
    "projectType": "재개발",
    "stage": "조합설립인가",
    "lat": 37.617472065001024,
    "lng": 127.02322337001323,
    "representativeAddress": "서울 강북구 미아동 403",
    "representativeComplex": null,
    "dataAsOf": "2026-06-21",
    "source": "정보몽땅(cleanup.seoul.go.kr)",
    "transactions": [],
    "geocoded": true
  },
  {
    "id": "seoul-11305-139",
    "name": "삼양사거리역세권 장기전세주택 도시정비형 재개발구역",
    "sido": "서울",
    "sigungu": "강북구",
    "projectType": "재개발",
    "stage": "사업시행자지정",
    "lat": 37.62309058987257,
    "lng": 127.02098538148635,
    "representativeAddress": "서울 강북구 미아동 754-120",
    "representativeComplex": null,
    "dataAsOf": "2026-06-21",
    "source": "정보몽땅(cleanup.seoul.go.kr)",
    "transactions": [],
    "geocoded": true
  },
  {
    "id": "seoul-11305-140",
    "name": "미아제11구역 재개발정비사업조합",
    "sido": "서울",
    "sigungu": "강북구",
    "projectType": "재개발",
    "stage": "조합설립인가",
    "lat": 37.62959636309982,
    "lng": 127.02000424468523,
    "representativeAddress": "서울 강북구 미아동 791-108",
    "representativeComplex": null,
    "dataAsOf": "2026-06-21",
    "source": "정보몽땅(cleanup.seoul.go.kr)",
    "transactions": [],
    "geocoded": true
  },
  {
    "id": "seoul-11305-141",
    "name": "미아동 791-2882번지 일대 주택정비형 재개발사업",
    "sido": "서울",
    "sigungu": "강북구",
    "projectType": "재개발",
    "stage": "추진위원회",
    "lat": 37.62191225576317,
    "lng": 127.01345443033323,
    "representativeAddress": "서울 강북구 미아동 791-2882",
    "representativeComplex": null,
    "dataAsOf": "2026-06-21",
    "source": "정보몽땅(cleanup.seoul.go.kr)",
    "transactions": [],
    "geocoded": true
  },
  {
    "id": "seoul-11305-142",
    "name": "미아4재정비촉진구역 주택재건축정비사업조합",
    "sido": "서울",
    "sigungu": "강북구",
    "projectType": "재건축",
    "stage": "관리처분인가",
    "lat": 37.6118791052494,
    "lng": 127.02281041476695,
    "representativeAddress": "서울 강북구 미아동 1261-376",
    "representativeComplex": "미아4재정비촉진구역",
    "dataAsOf": "2026-06-21",
    "source": "정보몽땅(cleanup.seoul.go.kr)",
    "transactions": [],
    "geocoded": true
  },
  {
    "id": "seoul-11305-143",
    "name": "미아3재정비촉진구역 주택재개발정비사업조합",
    "sido": "서울",
    "sigungu": "강북구",
    "projectType": "재개발",
    "stage": "관리처분인가",
    "lat": 37.61503301320894,
    "lng": 127.02551036339014,
    "representativeAddress": "서울 강북구 미아동 439",
    "representativeComplex": null,
    "dataAsOf": "2026-06-21",
    "source": "정보몽땅(cleanup.seoul.go.kr)",
    "transactions": [],
    "geocoded": true
  },
  {
    "id": "seoul-11305-144",
    "name": "번동 148번지 일대 주택정비형 재개발사업",
    "sido": "서울",
    "sigungu": "강북구",
    "projectType": "재개발",
    "stage": "추진위원회",
    "lat": 37.62832789099888,
    "lng": 127.03707380280704,
    "representativeAddress": "서울 강북구 번동 148",
    "representativeComplex": null,
    "dataAsOf": "2026-06-21",
    "source": "정보몽땅(cleanup.seoul.go.kr)",
    "transactions": [],
    "geocoded": true
  },
  {
    "id": "seoul-11305-145",
    "name": "번동 441-3번지 일대 주택재개발정비사업",
    "sido": "서울",
    "sigungu": "강북구",
    "projectType": "재개발",
    "stage": "추진위원회",
    "lat": 37.63423006830348,
    "lng": 127.02775576645212,
    "representativeAddress": "서울 강북구 번동 441-3",
    "representativeComplex": null,
    "dataAsOf": "2026-06-21",
    "source": "정보몽땅(cleanup.seoul.go.kr)",
    "transactions": [],
    "geocoded": true
  },
  {
    "id": "seoul-11305-146",
    "name": "수유제4-1구역 주택재건축정비사업 조합설립추진위원회",
    "sido": "서울",
    "sigungu": "강북구",
    "projectType": "재건축",
    "stage": "추진위원회",
    "lat": 37.62089681069959,
    "lng": 127.01544965706447,
    "representativeAddress": "서울 강북구 수유동 170-2",
    "representativeComplex": "수유제4-1구역",
    "dataAsOf": "2026-06-21",
    "source": "정보몽땅(cleanup.seoul.go.kr)",
    "transactions": [],
    "geocoded": false
  },
  {
    "id": "seoul-11305-147",
    "name": "수유제4-2구역 주택재건축정비사업 조합설립추진위원회",
    "sido": "서울",
    "sigungu": "강북구",
    "projectType": "재건축",
    "stage": "추진위원회",
    "lat": 37.64565812574719,
    "lng": 127.01370390103335,
    "representativeAddress": "서울 강북구 수유동 291-224",
    "representativeComplex": "수유제4-2구역",
    "dataAsOf": "2026-06-21",
    "source": "정보몽땅(cleanup.seoul.go.kr)",
    "transactions": [],
    "geocoded": true
  },
  {
    "id": "seoul-11305-148",
    "name": "수유제1-1구역 주택재건축정비사업 조합설립추진위원회",
    "sido": "서울",
    "sigungu": "강북구",
    "projectType": "재건축",
    "stage": "추진위원회",
    "lat": 37.62408645404664,
    "lng": 127.01863930041152,
    "representativeAddress": "서울 강북구 수유동 472-81",
    "representativeComplex": "수유제1-1구역",
    "dataAsOf": "2026-06-21",
    "source": "정보몽땅(cleanup.seoul.go.kr)",
    "transactions": [],
    "geocoded": false
  },
  {
    "id": "seoul-11320-149",
    "name": "삼환도봉아파트 재건축사업",
    "sido": "서울",
    "sigungu": "도봉구",
    "projectType": "재건축",
    "stage": "사업시행자지정",
    "lat": 37.68120639173186,
    "lng": 127.0488564232028,
    "representativeAddress": "서울 도봉구 도봉동 87",
    "representativeComplex": "삼환도봉",
    "dataAsOf": "2026-06-21",
    "source": "정보몽땅(cleanup.seoul.go.kr)",
    "transactions": [],
    "geocoded": true
  },
  {
    "id": "seoul-11320-150",
    "name": "쌍문2구역(쌍문동 81번지 일대) 주택정비형 재개발사업",
    "sido": "서울",
    "sigungu": "도봉구",
    "projectType": "재개발",
    "stage": "추진위원회",
    "lat": 37.653998683963984,
    "lng": 127.03438719057627,
    "representativeAddress": "서울 도봉구 쌍문동 81",
    "representativeComplex": null,
    "dataAsOf": "2026-06-21",
    "source": "정보몽땅(cleanup.seoul.go.kr)",
    "transactions": [],
    "geocoded": true
  },
  {
    "id": "seoul-11320-151",
    "name": "쌍문한양1차아파트 재건축사업",
    "sido": "서울",
    "sigungu": "도봉구",
    "projectType": "재건축",
    "stage": "조합설립인가",
    "lat": 37.64590192611279,
    "lng": 127.03069285230117,
    "representativeAddress": "서울 도봉구 쌍문동 388-33",
    "representativeComplex": "쌍문한양1차",
    "dataAsOf": "2026-06-21",
    "source": "정보몽땅(cleanup.seoul.go.kr)",
    "transactions": [],
    "geocoded": true
  },
  {
    "id": "seoul-11320-152",
    "name": "쌍문3구역 주택정비형재개발사업",
    "sido": "서울",
    "sigungu": "도봉구",
    "projectType": "재개발",
    "stage": "조합설립인가",
    "lat": 37.64603469838852,
    "lng": 127.02634412409708,
    "representativeAddress": "서울 도봉구 쌍문동 724",
    "representativeComplex": null,
    "dataAsOf": "2026-06-21",
    "source": "정보몽땅(cleanup.seoul.go.kr)",
    "transactions": [],
    "geocoded": true
  },
  {
    "id": "seoul-11320-153",
    "name": "창동상아1차아파트 재건축사업",
    "sido": "서울",
    "sigungu": "도봉구",
    "projectType": "재건축",
    "stage": "사업시행자지정",
    "lat": 37.654024962271066,
    "lng": 127.04226618643968,
    "representativeAddress": "서울 도봉구 창동 299",
    "representativeComplex": "창동상아1차",
    "dataAsOf": "2026-06-21",
    "source": "정보몽땅(cleanup.seoul.go.kr)",
    "transactions": [],
    "geocoded": true
  },
  {
    "id": "seoul-11350-154",
    "name": "상계3재정비촉진구역 공공재개발정비사업",
    "sido": "서울",
    "sigungu": "노원구",
    "projectType": "재개발",
    "stage": "조합설립인가",
    "lat": 37.670863179167824,
    "lng": 127.08366444991955,
    "representativeAddress": "서울 노원구 상계동 71-183",
    "representativeComplex": null,
    "dataAsOf": "2026-06-21",
    "source": "정보몽땅(cleanup.seoul.go.kr)",
    "transactions": [],
    "geocoded": true
  },
  {
    "id": "seoul-11350-155",
    "name": "상계동 154-3 일대 주택정비형 재개발사업",
    "sido": "서울",
    "sigungu": "노원구",
    "projectType": "재개발",
    "stage": "조합설립인가",
    "lat": 37.66391,
    "lng": 127.07078,
    "representativeAddress": "서울 노원구 상계동 154-3",
    "representativeComplex": null,
    "dataAsOf": "2026-06-21",
    "source": "정보몽땅(cleanup.seoul.go.kr)",
    "transactions": [],
    "geocoded": true
  },
  {
    "id": "seoul-11350-156",
    "name": "상계주공6단지아파트 재건축정비사업",
    "sido": "서울",
    "sigungu": "노원구",
    "projectType": "재건축",
    "stage": "추진위원회",
    "lat": 37.653577119858085,
    "lng": 127.06318278740969,
    "representativeAddress": "서울 노원구 상계동 720",
    "representativeComplex": "상계주공6단지",
    "dataAsOf": "2026-06-21",
    "source": "정보몽땅(cleanup.seoul.go.kr)",
    "transactions": [],
    "geocoded": true
  },
  {
    "id": "seoul-11350-157",
    "name": "상계주공5단지 재건축정비사업",
    "sido": "서울",
    "sigungu": "노원구",
    "projectType": "재건축",
    "stage": "사업시행인가",
    "lat": 37.65279504603286,
    "lng": 127.0649719107058,
    "representativeAddress": "서울 노원구 상계동 721",
    "representativeComplex": "상계주공5단지",
    "dataAsOf": "2026-06-21",
    "source": "정보몽땅(cleanup.seoul.go.kr)",
    "transactions": [],
    "geocoded": true
  },
  {
    "id": "seoul-11350-158",
    "name": "상계5재정비촉진구역 주택재개발정비사업 조합",
    "sido": "서울",
    "sigungu": "노원구",
    "projectType": "재개발",
    "stage": "조합설립인가",
    "lat": 37.667790486443764,
    "lng": 127.07815463565176,
    "representativeAddress": "서울 노원구 상계동 109-43",
    "representativeComplex": null,
    "dataAsOf": "2026-06-21",
    "source": "정보몽땅(cleanup.seoul.go.kr)",
    "transactions": [],
    "geocoded": true
  },
  {
    "id": "seoul-11350-159",
    "name": "상계2재정비촉진구역 주택재개발정비사업 조합",
    "sido": "서울",
    "sigungu": "노원구",
    "projectType": "재개발",
    "stage": "사업시행인가",
    "lat": 37.6718,
    "lng": 127.07937,
    "representativeAddress": "서울 노원구 상계동 자력2구역 17블럭 1롯트",
    "representativeComplex": null,
    "dataAsOf": "2026-06-21",
    "source": "정보몽땅(cleanup.seoul.go.kr)",
    "transactions": [],
    "geocoded": true
  },
  {
    "id": "seoul-11350-160",
    "name": "상계1재정비촉진구역 주택재개발정비사업 조합",
    "sido": "서울",
    "sigungu": "노원구",
    "projectType": "재개발",
    "stage": "관리처분인가",
    "lat": 37.67352,
    "lng": 127.08281,
    "representativeAddress": "서울 노원구 상계동 자력6구역 8블럭 9롯트",
    "representativeComplex": null,
    "dataAsOf": "2026-06-21",
    "source": "정보몽땅(cleanup.seoul.go.kr)",
    "transactions": [],
    "geocoded": true
  },
  {
    "id": "seoul-11350-161",
    "name": "월계동신아파트주택재건축정비사업조합",
    "sido": "서울",
    "sigungu": "노원구",
    "projectType": "재건축",
    "stage": "관리처분인가",
    "lat": 37.617534360634224,
    "lng": 127.06122769114346,
    "representativeAddress": "서울 노원구 월계동 436",
    "representativeComplex": "월계동신",
    "dataAsOf": "2026-06-21",
    "source": "정보몽땅(cleanup.seoul.go.kr)",
    "transactions": [],
    "geocoded": true
  },
  {
    "id": "seoul-11350-162",
    "name": "중계그린아파트 재건축사업",
    "sido": "서울",
    "sigungu": "노원구",
    "projectType": "재건축",
    "stage": "추진위원회",
    "lat": 37.64429615881998,
    "lng": 127.06362079034275,
    "representativeAddress": "서울 노원구 중계동 502-1",
    "representativeComplex": "중계그린",
    "dataAsOf": "2026-06-21",
    "source": "정보몽땅(cleanup.seoul.go.kr)",
    "transactions": [],
    "geocoded": true
  },
  {
    "id": "seoul-11350-163",
    "name": "하계장미아파트 재건축사업",
    "sido": "서울",
    "sigungu": "노원구",
    "projectType": "재건축",
    "stage": "추진위원회",
    "lat": 37.63326592243709,
    "lng": 127.06803414750165,
    "representativeAddress": "서울 노원구 하계동 273",
    "representativeComplex": "하계장미",
    "dataAsOf": "2026-06-21",
    "source": "정보몽땅(cleanup.seoul.go.kr)",
    "transactions": [],
    "geocoded": true
  },
  {
    "id": "seoul-11380-164",
    "name": "갈현제2구역 주택정비형 재개발사업",
    "sido": "서울",
    "sigungu": "은평구",
    "projectType": "재개발",
    "stage": "정비구역지정",
    "lat": 37.62875506144918,
    "lng": 126.91584495498174,
    "representativeAddress": "서울 은평구 갈현동 12-248",
    "representativeComplex": null,
    "dataAsOf": "2026-06-21",
    "source": "정보몽땅(cleanup.seoul.go.kr)",
    "transactions": [],
    "geocoded": true
  },
  {
    "id": "seoul-11380-165",
    "name": "역촌역세권(대조동) 장기전세주택 도시정비형재개발사업",
    "sido": "서울",
    "sigungu": "은평구",
    "projectType": "재개발",
    "stage": "조합설립인가",
    "lat": 37.608502086926315,
    "lng": 126.92396513989252,
    "representativeAddress": "서울 은평구 대조동 59-1",
    "representativeComplex": null,
    "dataAsOf": "2026-06-21",
    "source": "정보몽땅(cleanup.seoul.go.kr)",
    "transactions": [],
    "geocoded": true
  },
  {
    "id": "seoul-11380-166",
    "name": "불광1주택재건축정비사업(신탁방식)",
    "sido": "서울",
    "sigungu": "은평구",
    "projectType": "재건축",
    "stage": "사업시행인가",
    "lat": 37.619865885162284,
    "lng": 126.93254499430631,
    "representativeAddress": "서울 은평구 불광동 19-3",
    "representativeComplex": "불광1",
    "dataAsOf": "2026-06-21",
    "source": "정보몽땅(cleanup.seoul.go.kr)",
    "transactions": [],
    "geocoded": true
  },
  {
    "id": "seoul-11380-167",
    "name": "독바위역세권 도시정비형 재개발사업",
    "sido": "서울",
    "sigungu": "은평구",
    "projectType": "재개발",
    "stage": "사업시행인가",
    "lat": 37.618417208860194,
    "lng": 126.93203472634028,
    "representativeAddress": "서울 은평구 불광동 227-7",
    "representativeComplex": null,
    "dataAsOf": "2026-06-21",
    "source": "정보몽땅(cleanup.seoul.go.kr)",
    "transactions": [],
    "geocoded": true
  },
  {
    "id": "seoul-11380-168",
    "name": "불광제5 주택재개발정비사업 조합",
    "sido": "서울",
    "sigungu": "은평구",
    "projectType": "재개발",
    "stage": "관리처분인가",
    "lat": 37.61700116043659,
    "lng": 126.93190606638123,
    "representativeAddress": "서울 은평구 불광동 238",
    "representativeComplex": null,
    "dataAsOf": "2026-06-21",
    "source": "정보몽땅(cleanup.seoul.go.kr)",
    "transactions": [],
    "geocoded": true
  },
  {
    "id": "seoul-11380-169",
    "name": "불광미성아파트 주택재건축정비사업",
    "sido": "서울",
    "sigungu": "은평구",
    "projectType": "재건축",
    "stage": "추진위원회",
    "lat": 37.61482054936301,
    "lng": 126.92805507392927,
    "representativeAddress": "서울 은평구 불광동 248",
    "representativeComplex": "불광미성",
    "dataAsOf": "2026-06-21",
    "source": "정보몽땅(cleanup.seoul.go.kr)",
    "transactions": [],
    "geocoded": true
  },
  {
    "id": "seoul-11380-170",
    "name": "불광8 주택정비형 재개발사업",
    "sido": "서울",
    "sigungu": "은평구",
    "projectType": "재개발",
    "stage": "조합설립인가",
    "lat": 37.61186279555111,
    "lng": 126.93257740602058,
    "representativeAddress": "서울 은평구 불광동 600",
    "representativeComplex": null,
    "dataAsOf": "2026-06-21",
    "source": "정보몽땅(cleanup.seoul.go.kr)",
    "transactions": [],
    "geocoded": true
  },
  {
    "id": "seoul-11380-171",
    "name": "수색8재정비촉진구역 주택재개발 정비사업조합",
    "sido": "서울",
    "sigungu": "은평구",
    "projectType": "재개발",
    "stage": "관리처분인가",
    "lat": 37.58366727399672,
    "lng": 126.89909055343213,
    "representativeAddress": "서울 은평구 수색동 16-2",
    "representativeComplex": null,
    "dataAsOf": "2026-06-21",
    "source": "정보몽땅(cleanup.seoul.go.kr)",
    "transactions": [],
    "geocoded": true
  },
  {
    "id": "seoul-11380-172",
    "name": "수색11재정비촉진구역",
    "sido": "서울",
    "sigungu": "은평구",
    "projectType": "재개발",
    "stage": "정비구역지정",
    "lat": 37.58043400558168,
    "lng": 126.89949280255911,
    "representativeAddress": "서울 은평구 수색동 32-13",
    "representativeComplex": null,
    "dataAsOf": "2026-06-21",
    "source": "정보몽땅(cleanup.seoul.go.kr)",
    "transactions": [],
    "geocoded": true
  },
  {
    "id": "seoul-11380-173",
    "name": "수색1재정비촉진구역 도시환경정비사업 조합",
    "sido": "서울",
    "sigungu": "은평구",
    "projectType": "재개발",
    "stage": "조합설립인가",
    "lat": 37.58310332013119,
    "lng": 126.89441801091274,
    "representativeAddress": "서울 은평구 수색동 366-6",
    "representativeComplex": null,
    "dataAsOf": "2026-06-21",
    "source": "정보몽땅(cleanup.seoul.go.kr)",
    "transactions": [],
    "geocoded": true
  },
  {
    "id": "seoul-11380-174",
    "name": "신사동200번지 일대 주택정비형 재개발사업",
    "sido": "서울",
    "sigungu": "은평구",
    "projectType": "재개발",
    "stage": "정비구역지정",
    "lat": 37.59473944553048,
    "lng": 126.90728687855312,
    "representativeAddress": "서울 은평구 신사동 200",
    "representativeComplex": null,
    "dataAsOf": "2026-06-21",
    "source": "정보몽땅(cleanup.seoul.go.kr)",
    "transactions": [],
    "geocoded": true
  },
  {
    "id": "seoul-11380-175",
    "name": "신사동237번지 일대 주택정비형 재개발사업",
    "sido": "서울",
    "sigungu": "은평구",
    "projectType": "재개발",
    "stage": "사업시행자지정",
    "lat": 37.59634840983926,
    "lng": 126.90570454110286,
    "representativeAddress": "서울 은평구 신사동 237",
    "representativeComplex": null,
    "dataAsOf": "2026-06-21",
    "source": "정보몽땅(cleanup.seoul.go.kr)",
    "transactions": [],
    "geocoded": true
  },
  {
    "id": "seoul-11380-176",
    "name": "응암동 101번지 일대 주택정비형 공공재개발",
    "sido": "서울",
    "sigungu": "은평구",
    "projectType": "재개발",
    "stage": "정비구역지정",
    "lat": 37.598984086374166,
    "lng": 126.92392873288162,
    "representativeAddress": "서울 은평구 응암동 101",
    "representativeComplex": null,
    "dataAsOf": "2026-06-21",
    "source": "정보몽땅(cleanup.seoul.go.kr)",
    "transactions": [],
    "geocoded": true
  },
  {
    "id": "seoul-11380-177",
    "name": "응암동 700번지 일대 주택정비형 재개발사업",
    "sido": "서울",
    "sigungu": "은평구",
    "projectType": "재개발",
    "stage": "추진위원회",
    "lat": 37.584971175936175,
    "lng": 126.91686196526496,
    "representativeAddress": "서울 은평구 응암동 700",
    "representativeComplex": null,
    "dataAsOf": "2026-06-21",
    "source": "정보몽땅(cleanup.seoul.go.kr)",
    "transactions": [],
    "geocoded": true
  },
  {
    "id": "seoul-11380-178",
    "name": "응암동 755번지 일대 주택정비형 재개발사업",
    "sido": "서울",
    "sigungu": "은평구",
    "projectType": "재개발",
    "stage": "정비구역지정",
    "lat": 37.584734476995,
    "lng": 126.92051376598492,
    "representativeAddress": "서울 은평구 응암동 755",
    "representativeComplex": null,
    "dataAsOf": "2026-06-21",
    "source": "정보몽땅(cleanup.seoul.go.kr)",
    "transactions": [],
    "geocoded": true
  },
  {
    "id": "seoul-11380-179",
    "name": "증산5재정비촉진구역 주택재개발정비사업 조합",
    "sido": "서울",
    "sigungu": "은평구",
    "projectType": "재개발",
    "stage": "관리처분인가",
    "lat": 37.58819590962935,
    "lng": 126.91105461659382,
    "representativeAddress": "서울 은평구 증산동 195",
    "representativeComplex": null,
    "dataAsOf": "2026-06-21",
    "source": "정보몽땅(cleanup.seoul.go.kr)",
    "transactions": [],
    "geocoded": true
  },
  {
    "id": "seoul-11410-180",
    "name": "가재울9(좌원상가) 도시재생형 재개발사업",
    "sido": "서울",
    "sigungu": "서대문구",
    "projectType": "재개발",
    "stage": "정비구역지정",
    "lat": 37.57026322052511,
    "lng": 126.91410932525926,
    "representativeAddress": "서울 서대문구 남가좌동 295-5",
    "representativeComplex": null,
    "dataAsOf": "2026-06-21",
    "source": "정보몽땅(cleanup.seoul.go.kr)",
    "transactions": [],
    "geocoded": true
  },
  {
    "id": "seoul-11410-181",
    "name": "가재울뉴타운7구역주택재개발정비사업조합",
    "sido": "서울",
    "sigungu": "서대문구",
    "projectType": "재개발",
    "stage": "사업시행인가",
    "lat": 37.579589951239825,
    "lng": 126.91307512015833,
    "representativeAddress": "서울 서대문구 북가좌동 73-1",
    "representativeComplex": null,
    "dataAsOf": "2026-06-21",
    "source": "정보몽땅(cleanup.seoul.go.kr)",
    "transactions": [],
    "geocoded": true
  },
  {
    "id": "seoul-11410-182",
    "name": "북가좌제6구역 주택재건축정비사업조합",
    "sido": "서울",
    "sigungu": "서대문구",
    "projectType": "재건축",
    "stage": "조합설립인가",
    "lat": 37.57684348446375,
    "lng": 126.90481108370857,
    "representativeAddress": "서울 서대문구 북가좌동 372-1",
    "representativeComplex": "북가좌제6구역",
    "dataAsOf": "2026-06-21",
    "source": "정보몽땅(cleanup.seoul.go.kr)",
    "transactions": [],
    "geocoded": true
  },
  {
    "id": "seoul-11410-183",
    "name": "북아현 3 재정비촉진구역 주택재개발 정비사업조합",
    "sido": "서울",
    "sigungu": "서대문구",
    "projectType": "재개발",
    "stage": "사업시행인가",
    "lat": 37.56342237646911,
    "lng": 126.95794918590389,
    "representativeAddress": "서울 서대문구 북아현동 3-66",
    "representativeComplex": null,
    "dataAsOf": "2026-06-21",
    "source": "정보몽땅(cleanup.seoul.go.kr)",
    "transactions": [],
    "geocoded": true
  },
  {
    "id": "seoul-11410-184",
    "name": "북아현4재정비촉진구역 도시정비형 재개발정비사업 조합설립추진위원회",
    "sido": "서울",
    "sigungu": "서대문구",
    "projectType": "재개발",
    "stage": "추진위원회",
    "lat": 37.557448776566275,
    "lng": 126.95145893349559,
    "representativeAddress": "서울 서대문구 북아현동 221-7",
    "representativeComplex": null,
    "dataAsOf": "2026-06-21",
    "source": "정보몽땅(cleanup.seoul.go.kr)",
    "transactions": [],
    "geocoded": true
  },
  {
    "id": "seoul-11410-185",
    "name": "북아현 2 재정비촉진구역 주택재개발 정비사업조합",
    "sido": "서울",
    "sigungu": "서대문구",
    "projectType": "재개발",
    "stage": "관리처분인가",
    "lat": 37.55958750746585,
    "lng": 126.95943044863634,
    "representativeAddress": "서울 서대문구 북아현동 520",
    "representativeComplex": null,
    "dataAsOf": "2026-06-21",
    "source": "정보몽땅(cleanup.seoul.go.kr)",
    "transactions": [],
    "geocoded": true
  },
  {
    "id": "seoul-11410-186",
    "name": "연희2구역 공공재개발사업",
    "sido": "서울",
    "sigungu": "서대문구",
    "projectType": "재개발",
    "stage": "추진위원회",
    "lat": 37.5768938629688,
    "lng": 126.9321670417348,
    "representativeAddress": "서울 서대문구 연희동 721-6",
    "representativeComplex": null,
    "dataAsOf": "2026-06-21",
    "source": "정보몽땅(cleanup.seoul.go.kr)",
    "transactions": [],
    "geocoded": true
  },
  {
    "id": "seoul-11410-187",
    "name": "마포로5구역제2지구 도시정비형재개발사업조합",
    "sido": "서울",
    "sigungu": "서대문구",
    "projectType": "재개발",
    "stage": "조합설립인가",
    "lat": 37.56116820016779,
    "lng": 126.96404713418482,
    "representativeAddress": "서울 서대문구 충정로3가 250",
    "representativeComplex": null,
    "dataAsOf": "2026-06-21",
    "source": "정보몽땅(cleanup.seoul.go.kr)",
    "transactions": [],
    "geocoded": true
  },
  {
    "id": "seoul-11410-188",
    "name": "충정로1구역 주택정비형 공공재개발사업",
    "sido": "서울",
    "sigungu": "서대문구",
    "projectType": "재개발",
    "stage": "조합설립인가",
    "lat": 37.56090397162728,
    "lng": 126.9644349869742,
    "representativeAddress": "서울 서대문구 충정로3가 281-11",
    "representativeComplex": null,
    "dataAsOf": "2026-06-21",
    "source": "정보몽땅(cleanup.seoul.go.kr)",
    "transactions": [],
    "geocoded": true
  },
  {
    "id": "seoul-11410-189",
    "name": "홍은15구역 주택정비형 재개발사업",
    "sido": "서울",
    "sigungu": "서대문구",
    "projectType": "재개발",
    "stage": "조합설립인가",
    "lat": 37.5991559929287,
    "lng": 126.95033484847755,
    "representativeAddress": "서울 서대문구 홍은동 8-400",
    "representativeComplex": null,
    "dataAsOf": "2026-06-21",
    "source": "정보몽땅(cleanup.seoul.go.kr)",
    "transactions": [],
    "geocoded": true
  },
  {
    "id": "seoul-11410-190",
    "name": "홍은1구역 공공재개발사업",
    "sido": "서울",
    "sigungu": "서대문구",
    "projectType": "재개발",
    "stage": "조합설립인가",
    "lat": 37.59230434081181,
    "lng": 126.94238694409232,
    "representativeAddress": "서울 서대문구 홍은동 48-163",
    "representativeComplex": null,
    "dataAsOf": "2026-06-21",
    "source": "정보몽땅(cleanup.seoul.go.kr)",
    "transactions": [],
    "geocoded": true
  },
  {
    "id": "seoul-11410-191",
    "name": "홍은동 제5주택재건축정비사업 조합",
    "sido": "서울",
    "sigungu": "서대문구",
    "projectType": "재건축",
    "stage": "사업시행인가",
    "lat": 37.58107548196182,
    "lng": 126.93439928329275,
    "representativeAddress": "서울 서대문구 홍은동 277-45",
    "representativeComplex": "홍은동제5",
    "dataAsOf": "2026-06-21",
    "source": "정보몽땅(cleanup.seoul.go.kr)",
    "transactions": [],
    "geocoded": true
  },
  {
    "id": "seoul-11410-192",
    "name": "홍제3구역주택재건축정비사업조합",
    "sido": "서울",
    "sigungu": "서대문구",
    "projectType": "재건축",
    "stage": "관리처분인가",
    "lat": 37.584739466402866,
    "lng": 126.95011909145276,
    "representativeAddress": "서울 서대문구 홍제동 104-41",
    "representativeComplex": "홍제3구역",
    "dataAsOf": "2026-06-21",
    "source": "정보몽땅(cleanup.seoul.go.kr)",
    "transactions": [],
    "geocoded": true
  },
  {
    "id": "seoul-11410-193",
    "name": "홍제4 주택정비형 재개발 정비구역",
    "sido": "서울",
    "sigungu": "서대문구",
    "projectType": "재개발",
    "stage": "추진위원회",
    "lat": 37.591613966465744,
    "lng": 126.94868564803764,
    "representativeAddress": "서울 서대문구 홍제동 267-1",
    "representativeComplex": null,
    "dataAsOf": "2026-06-21",
    "source": "정보몽땅(cleanup.seoul.go.kr)",
    "transactions": [],
    "geocoded": true
  },
  {
    "id": "seoul-11410-194",
    "name": "홍제역 역세권활성화 사업",
    "sido": "서울",
    "sigungu": "서대문구",
    "projectType": "재개발",
    "stage": "사업시행인가",
    "lat": 37.590852960550784,
    "lng": 126.94286069627726,
    "representativeAddress": "서울 서대문구 홍제동 298-9",
    "representativeComplex": null,
    "dataAsOf": "2026-06-21",
    "source": "정보몽땅(cleanup.seoul.go.kr)",
    "transactions": [],
    "geocoded": true
  },
  {
    "id": "seoul-11410-195",
    "name": "홍제3구역도시환경정비사업조합설립추진위원회",
    "sido": "서울",
    "sigungu": "서대문구",
    "projectType": "재개발",
    "stage": "추진위원회",
    "lat": 37.588046482540285,
    "lng": 126.94359115734159,
    "representativeAddress": "서울 서대문구 홍제동 306-2",
    "representativeComplex": null,
    "dataAsOf": "2026-06-21",
    "source": "정보몽땅(cleanup.seoul.go.kr)",
    "transactions": [],
    "geocoded": true
  },
  {
    "id": "seoul-11410-196",
    "name": "홍제제2구역 도시환경정비사업조합",
    "sido": "서울",
    "sigungu": "서대문구",
    "projectType": "재개발",
    "stage": "조합설립인가",
    "lat": 37.590457536239086,
    "lng": 126.9415939607544,
    "representativeAddress": "서울 서대문구 홍제동 326-5",
    "representativeComplex": null,
    "dataAsOf": "2026-06-21",
    "source": "정보몽땅(cleanup.seoul.go.kr)",
    "transactions": [],
    "geocoded": true
  },
  {
    "id": "seoul-11440-197",
    "name": "공덕8구역 주택정비형 재개발사업",
    "sido": "서울",
    "sigungu": "마포구",
    "projectType": "재개발",
    "stage": "추진위원회",
    "lat": 37.54914799460616,
    "lng": 126.96212297419473,
    "representativeAddress": "서울 마포구 공덕동 11-24",
    "representativeComplex": null,
    "dataAsOf": "2026-06-21",
    "source": "정보몽땅(cleanup.seoul.go.kr)",
    "transactions": [],
    "geocoded": true
  },
  {
    "id": "seoul-11440-198",
    "name": "공덕7구역 주택정비형 재개발사업",
    "sido": "서울",
    "sigungu": "마포구",
    "projectType": "재개발",
    "stage": "조합설립인가",
    "lat": 37.54817289348212,
    "lng": 126.95838824175621,
    "representativeAddress": "서울 마포구 공덕동 115-97",
    "representativeComplex": null,
    "dataAsOf": "2026-06-21",
    "source": "정보몽땅(cleanup.seoul.go.kr)",
    "transactions": [],
    "geocoded": true
  },
  {
    "id": "seoul-11440-199",
    "name": "공덕6구역 주택재개발 정비사업",
    "sido": "서울",
    "sigungu": "마포구",
    "projectType": "재개발",
    "stage": "사업시행인가",
    "lat": 37.54833817837179,
    "lng": 126.9559924785953,
    "representativeAddress": "서울 마포구 공덕동 119",
    "representativeComplex": null,
    "dataAsOf": "2026-06-21",
    "source": "정보몽땅(cleanup.seoul.go.kr)",
    "transactions": [],
    "geocoded": true
  },
  {
    "id": "seoul-11440-200",
    "name": "마포로1구역 제5지구 도시정비형 재개발사업",
    "sido": "서울",
    "sigungu": "마포구",
    "projectType": "재개발",
    "stage": "추진위원회",
    "lat": 37.54079185712246,
    "lng": 126.94593367684102,
    "representativeAddress": "서울 마포구 도화동 544",
    "representativeComplex": null,
    "dataAsOf": "2026-06-21",
    "source": "정보몽땅(cleanup.seoul.go.kr)",
    "transactions": [],
    "geocoded": true
  },
  {
    "id": "seoul-11440-201",
    "name": "마포로1구역 제10지구 도시정비형 재개발사업 조합",
    "sido": "서울",
    "sigungu": "마포구",
    "projectType": "재개발",
    "stage": "사업시행인가",
    "lat": 37.54256718897007,
    "lng": 126.94739379785334,
    "representativeAddress": "서울 마포구 도화동 536",
    "representativeComplex": null,
    "dataAsOf": "2026-06-21",
    "source": "정보몽땅(cleanup.seoul.go.kr)",
    "transactions": [],
    "geocoded": true
  },
  {
    "id": "seoul-11440-202",
    "name": "마포로1구역 제23지구 도시정비형 재개발사업 조합",
    "sido": "서울",
    "sigungu": "마포구",
    "projectType": "재개발",
    "stage": "추진위원회",
    "lat": 37.53632586314693,
    "lng": 126.94393199367761,
    "representativeAddress": "서울 마포구 마포동 350",
    "representativeComplex": null,
    "dataAsOf": "2026-06-21",
    "source": "정보몽땅(cleanup.seoul.go.kr)",
    "transactions": [],
    "geocoded": true
  },
  {
    "id": "seoul-11440-203",
    "name": "성산시영아파트 재건축정비사업조합",
    "sido": "서울",
    "sigungu": "마포구",
    "projectType": "재건축",
    "stage": "조합설립인가",
    "lat": 37.572083791799,
    "lng": 126.90177892831503,
    "representativeAddress": "서울 마포구 성산동 446",
    "representativeComplex": "성산시영",
    "dataAsOf": "2026-06-21",
    "source": "정보몽땅(cleanup.seoul.go.kr)",
    "transactions": [],
    "geocoded": true
  },
  {
    "id": "seoul-11440-204",
    "name": "신수2구역 주택재건축정비사업 조합설립추진위원회",
    "sido": "서울",
    "sigungu": "마포구",
    "projectType": "재건축",
    "stage": "추진위원회",
    "lat": 37.56009646776406,
    "lng": 126.90414931412894,
    "representativeAddress": "서울 마포구 신수동 225-7",
    "representativeComplex": "신수2구역",
    "dataAsOf": "2026-06-21",
    "source": "정보몽땅(cleanup.seoul.go.kr)",
    "transactions": [],
    "geocoded": false
  },
  {
    "id": "seoul-11440-205",
    "name": "염리5구역 주택재개발 조합설립추진위원회(뉴타운)",
    "sido": "서울",
    "sigungu": "마포구",
    "projectType": "재개발",
    "stage": "추진위원회",
    "lat": 37.548115306279364,
    "lng": 126.94598480474346,
    "representativeAddress": "서울 마포구 염리동 105",
    "representativeComplex": null,
    "dataAsOf": "2026-06-21",
    "source": "정보몽땅(cleanup.seoul.go.kr)",
    "transactions": [],
    "geocoded": true
  },
  {
    "id": "seoul-11440-206",
    "name": "염리동 488-14번지 일대 주택정비형 재개발사업 조합설립추진위원회",
    "sido": "서울",
    "sigungu": "마포구",
    "projectType": "재개발",
    "stage": "추진위원회",
    "lat": 37.55536566322261,
    "lng": 126.94829667553256,
    "representativeAddress": "서울 마포구 염리동 488-14",
    "representativeComplex": null,
    "dataAsOf": "2026-06-21",
    "source": "정보몽땅(cleanup.seoul.go.kr)",
    "transactions": [],
    "geocoded": true
  },
  {
    "id": "seoul-11470-207",
    "name": "목2동 232번지 일대 주택정비형 재개발사업조합",
    "sido": "서울",
    "sigungu": "양천구",
    "projectType": "재개발",
    "stage": "추진위원회",
    "lat": 37.54108655143177,
    "lng": 126.86966188701831,
    "representativeAddress": "서울 양천구 목동 232",
    "representativeComplex": null,
    "dataAsOf": "2026-06-21",
    "source": "정보몽땅(cleanup.seoul.go.kr)",
    "transactions": [],
    "geocoded": true
  },
  {
    "id": "seoul-11470-208",
    "name": "목동1단지 아파트 재건축 정비사업",
    "sido": "서울",
    "sigungu": "양천구",
    "projectType": "재건축",
    "stage": "사업시행자지정",
    "lat": 37.53973555602954,
    "lng": 126.87799995198365,
    "representativeAddress": "서울 양천구 목동 901",
    "representativeComplex": "목동1단지",
    "dataAsOf": "2026-06-21",
    "source": "정보몽땅(cleanup.seoul.go.kr)",
    "transactions": [],
    "geocoded": true
  },
  {
    "id": "seoul-11470-209",
    "name": "목동2단지아파트 재건축정비사업",
    "sido": "서울",
    "sigungu": "양천구",
    "projectType": "재건축",
    "stage": "사업시행자지정",
    "lat": 37.53771503898436,
    "lng": 126.87747199928975,
    "representativeAddress": "서울 양천구 목동 902",
    "representativeComplex": "목동2단지",
    "dataAsOf": "2026-06-21",
    "source": "정보몽땅(cleanup.seoul.go.kr)",
    "transactions": [],
    "geocoded": true
  },
  {
    "id": "seoul-11470-210",
    "name": "목동3단지아파트 재건축정비사업",
    "sido": "서울",
    "sigungu": "양천구",
    "projectType": "재건축",
    "stage": "추진위원회",
    "lat": 37.53434723336352,
    "lng": 126.87276645897555,
    "representativeAddress": "서울 양천구 목동 903",
    "representativeComplex": "목동3단지",
    "dataAsOf": "2026-06-21",
    "source": "정보몽땅(cleanup.seoul.go.kr)",
    "transactions": [],
    "geocoded": true
  },
  {
    "id": "seoul-11470-211",
    "name": "목동4단지아파트 재건축정비사업",
    "sido": "서울",
    "sigungu": "양천구",
    "projectType": "재건축",
    "stage": "조합설립인가",
    "lat": 37.53185281953516,
    "lng": 126.87288038138966,
    "representativeAddress": "서울 양천구 목동 904",
    "representativeComplex": "목동4단지",
    "dataAsOf": "2026-06-21",
    "source": "정보몽땅(cleanup.seoul.go.kr)",
    "transactions": [],
    "geocoded": true
  },
  {
    "id": "seoul-11470-212",
    "name": "목동6단지아파트 재건축정비사업조합",
    "sido": "서울",
    "sigungu": "양천구",
    "projectType": "재건축",
    "stage": "조합설립인가",
    "lat": 37.534569016927094,
    "lng": 126.88506798979441,
    "representativeAddress": "서울 양천구 목동 911",
    "representativeComplex": "목동6단지",
    "dataAsOf": "2026-06-21",
    "source": "정보몽땅(cleanup.seoul.go.kr)",
    "transactions": [],
    "geocoded": true
  },
  {
    "id": "seoul-11470-213",
    "name": "목동5단지아파트 재건축정비사업",
    "sido": "서울",
    "sigungu": "양천구",
    "projectType": "재건축",
    "stage": "사업시행자지정",
    "lat": 37.53422229677645,
    "lng": 126.88142839253246,
    "representativeAddress": "서울 양천구 목동 912",
    "representativeComplex": "목동5단지",
    "dataAsOf": "2026-06-21",
    "source": "정보몽땅(cleanup.seoul.go.kr)",
    "transactions": [],
    "geocoded": true
  },
  {
    "id": "seoul-11470-214",
    "name": "목동7단지아파트 재건축정비사업 조합설립추진위원회",
    "sido": "서울",
    "sigungu": "양천구",
    "projectType": "재건축",
    "stage": "추진위원회",
    "lat": 37.52880301078866,
    "lng": 126.86878610106021,
    "representativeAddress": "서울 양천구 목동 925",
    "representativeComplex": "목동7단지",
    "dataAsOf": "2026-06-21",
    "source": "정보몽땅(cleanup.seoul.go.kr)",
    "transactions": [],
    "geocoded": true
  },
  {
    "id": "seoul-11470-215",
    "name": "신월5동 77번지 일대 공공재개발사업",
    "sido": "서울",
    "sigungu": "양천구",
    "projectType": "재개발",
    "stage": "정비구역지정",
    "lat": 37.53794331870887,
    "lng": 126.82980347228224,
    "representativeAddress": "서울 양천구 신월동 77-1",
    "representativeComplex": null,
    "dataAsOf": "2026-06-21",
    "source": "정보몽땅(cleanup.seoul.go.kr)",
    "transactions": [],
    "geocoded": true
  },
  {
    "id": "seoul-11470-216",
    "name": "신월1구역 주택재개발정비사업 조합설립추진위원회",
    "sido": "서울",
    "sigungu": "양천구",
    "projectType": "재개발",
    "stage": "추진위원회",
    "lat": 37.52993432784637,
    "lng": 126.84788717421125,
    "representativeAddress": "서울 양천구 신월동 159-192",
    "representativeComplex": null,
    "dataAsOf": "2026-06-21",
    "source": "정보몽땅(cleanup.seoul.go.kr)",
    "transactions": [],
    "geocoded": false
  },
  {
    "id": "seoul-11470-217",
    "name": "신월2구역 주택재건축정비사업 조합설립추진위원회",
    "sido": "서울",
    "sigungu": "양천구",
    "projectType": "재건축",
    "stage": "추진위원회",
    "lat": 37.52404990080555,
    "lng": 126.84351626277689,
    "representativeAddress": "서울 양천구 신월동 487-4",
    "representativeComplex": "신월2구역",
    "dataAsOf": "2026-06-21",
    "source": "정보몽땅(cleanup.seoul.go.kr)",
    "transactions": [],
    "geocoded": true
  },
  {
    "id": "seoul-11470-218",
    "name": "신정1재정비촉진구역3지구 주택재개발정비사업 조합",
    "sido": "서울",
    "sigungu": "양천구",
    "projectType": "재개발",
    "stage": "사업시행인가",
    "lat": 37.52116667581362,
    "lng": 126.84613255576441,
    "representativeAddress": "서울 양천구 신월동 606",
    "representativeComplex": null,
    "dataAsOf": "2026-06-21",
    "source": "정보몽땅(cleanup.seoul.go.kr)",
    "transactions": [],
    "geocoded": true
  },
  {
    "id": "seoul-11470-219",
    "name": "신월7동 1구역 주택재개발정비사업",
    "sido": "서울",
    "sigungu": "양천구",
    "projectType": "재개발",
    "stage": "사업시행자지정",
    "lat": 37.52340137379443,
    "lng": 126.83200605329532,
    "representativeAddress": "서울 양천구 신월동 913",
    "representativeComplex": null,
    "dataAsOf": "2026-06-21",
    "source": "정보몽땅(cleanup.seoul.go.kr)",
    "transactions": [],
    "geocoded": true
  },
  {
    "id": "seoul-11470-220",
    "name": "신월7동 2구역 주택정비형 공공재개발사업",
    "sido": "서울",
    "sigungu": "양천구",
    "projectType": "재개발",
    "stage": "조합설립인가",
    "lat": 37.52131821457811,
    "lng": 126.83255423782643,
    "representativeAddress": "서울 양천구 신월동 941",
    "representativeComplex": null,
    "dataAsOf": "2026-06-21",
    "source": "정보몽땅(cleanup.seoul.go.kr)",
    "transactions": [],
    "geocoded": true
  },
  {
    "id": "seoul-11470-221",
    "name": "신월시영아파트 재건축정비사업",
    "sido": "서울",
    "sigungu": "양천구",
    "projectType": "재건축",
    "stage": "사업시행자지정",
    "lat": 37.51790572770743,
    "lng": 126.83611281503647,
    "representativeAddress": "서울 양천구 신월동 987-1",
    "representativeComplex": "신월시영",
    "dataAsOf": "2026-06-21",
    "source": "정보몽땅(cleanup.seoul.go.kr)",
    "transactions": [],
    "geocoded": true
  },
  {
    "id": "seoul-11470-222",
    "name": "목동10단지아파트 재건축정비사업",
    "sido": "서울",
    "sigungu": "양천구",
    "projectType": "재건축",
    "stage": "사업시행자지정",
    "lat": 37.51704210676279,
    "lng": 126.85906491667605,
    "representativeAddress": "서울 양천구 신정동 311",
    "representativeComplex": "목동10단지",
    "dataAsOf": "2026-06-21",
    "source": "정보몽땅(cleanup.seoul.go.kr)",
    "transactions": [],
    "geocoded": true
  },
  {
    "id": "seoul-11470-223",
    "name": "목동9단지아파트 재건축정비사업",
    "sido": "서울",
    "sigungu": "양천구",
    "projectType": "재건축",
    "stage": "사업시행자지정",
    "lat": 37.5185086158742,
    "lng": 126.86265520837495,
    "representativeAddress": "서울 양천구 신정동 312",
    "representativeComplex": "목동9단지",
    "dataAsOf": "2026-06-21",
    "source": "정보몽땅(cleanup.seoul.go.kr)",
    "transactions": [],
    "geocoded": true
  },
  {
    "id": "seoul-11470-224",
    "name": "목동8단지아파트 재건축정비사업조합",
    "sido": "서울",
    "sigungu": "양천구",
    "projectType": "재건축",
    "stage": "조합설립인가",
    "lat": 37.521248458087896,
    "lng": 126.86755002200954,
    "representativeAddress": "서울 양천구 신정동 314",
    "representativeComplex": "목동8단지",
    "dataAsOf": "2026-06-21",
    "source": "정보몽땅(cleanup.seoul.go.kr)",
    "transactions": [],
    "geocoded": true
  },
  {
    "id": "seoul-11470-225",
    "name": "목동11단지아파트 재건축정비사업",
    "sido": "서울",
    "sigungu": "양천구",
    "projectType": "재건축",
    "stage": "사업시행자지정",
    "lat": 37.51200732929992,
    "lng": 126.8585014457351,
    "representativeAddress": "서울 양천구 신정동 325",
    "representativeComplex": "목동11단지",
    "dataAsOf": "2026-06-21",
    "source": "정보몽땅(cleanup.seoul.go.kr)",
    "transactions": [],
    "geocoded": true
  },
  {
    "id": "seoul-11470-226",
    "name": "목동12단지아파트 재건축정비사업",
    "sido": "서울",
    "sigungu": "양천구",
    "projectType": "재건축",
    "stage": "조합설립인가",
    "lat": 37.513415634791684,
    "lng": 126.86079406574888,
    "representativeAddress": "서울 양천구 신정동 326",
    "representativeComplex": "목동12단지",
    "dataAsOf": "2026-06-21",
    "source": "정보몽땅(cleanup.seoul.go.kr)",
    "transactions": [],
    "geocoded": true
  },
  {
    "id": "seoul-11470-227",
    "name": "목동13단지아파트 재건축정비사업",
    "sido": "서울",
    "sigungu": "양천구",
    "projectType": "재건축",
    "stage": "사업시행자지정",
    "lat": 37.51445605079517,
    "lng": 126.8648729647669,
    "representativeAddress": "서울 양천구 신정동 327",
    "representativeComplex": "목동13단지",
    "dataAsOf": "2026-06-21",
    "source": "정보몽땅(cleanup.seoul.go.kr)",
    "transactions": [],
    "geocoded": true
  },
  {
    "id": "seoul-11470-228",
    "name": "목동14단지아파트 재건축정비사업",
    "sido": "서울",
    "sigungu": "양천구",
    "projectType": "재건축",
    "stage": "사업시행자지정",
    "lat": 37.51624493004357,
    "lng": 126.87078444782682,
    "representativeAddress": "서울 양천구 신정동 329",
    "representativeComplex": "목동14단지",
    "dataAsOf": "2026-06-21",
    "source": "정보몽땅(cleanup.seoul.go.kr)",
    "transactions": [],
    "geocoded": true
  },
  {
    "id": "seoul-11470-229",
    "name": "신정동 1152번지 일대 주택정비형 재개발사업",
    "sido": "서울",
    "sigungu": "양천구",
    "projectType": "재개발",
    "stage": "사업시행인가",
    "lat": 37.51591151285072,
    "lng": 126.85204357835443,
    "representativeAddress": "서울 양천구 신정동 1152-1",
    "representativeComplex": null,
    "dataAsOf": "2026-06-21",
    "source": "정보몽땅(cleanup.seoul.go.kr)",
    "transactions": [],
    "geocoded": true
  },
  {
    "id": "seoul-11470-230",
    "name": "신정3재정비촉진지구2구역 도시환경정비사업조합설립추진위원회",
    "sido": "서울",
    "sigungu": "양천구",
    "projectType": "재개발",
    "stage": "추진위원회",
    "lat": 37.51871985343034,
    "lng": 126.85290049723557,
    "representativeAddress": "서울 양천구 신정동 1182-1",
    "representativeComplex": null,
    "dataAsOf": "2026-06-21",
    "source": "정보몽땅(cleanup.seoul.go.kr)",
    "transactions": [],
    "geocoded": true
  },
  {
    "id": "seoul-11470-231",
    "name": "신정3재정비촉진3-1구역 도시환경정비사업 조합설립추진위원회",
    "sido": "서울",
    "sigungu": "양천구",
    "projectType": "재개발",
    "stage": "추진위원회",
    "lat": 37.52093730996557,
    "lng": 126.85201777411741,
    "representativeAddress": "서울 양천구 신정동 1190-1",
    "representativeComplex": null,
    "dataAsOf": "2026-06-21",
    "source": "정보몽땅(cleanup.seoul.go.kr)",
    "transactions": [],
    "geocoded": true
  },
  {
    "id": "seoul-11470-232",
    "name": "신정4재정비촉진구역 재건축정비사업조합",
    "sido": "서울",
    "sigungu": "양천구",
    "projectType": "재건축",
    "stage": "관리처분인가",
    "lat": 37.520794512267116,
    "lng": 126.84980045639574,
    "representativeAddress": "서울 양천구 신정동 1200-1",
    "representativeComplex": "신정4재정비촉진구역",
    "dataAsOf": "2026-06-21",
    "source": "정보몽땅(cleanup.seoul.go.kr)",
    "transactions": [],
    "geocoded": true
  },
  {
    "id": "seoul-11470-233",
    "name": "신정수정아파트 재건축정비사업",
    "sido": "서울",
    "sigungu": "양천구",
    "projectType": "재건축",
    "stage": "관리처분인가",
    "lat": 37.51241820900866,
    "lng": 126.84200262613979,
    "representativeAddress": "서울 양천구 신정동 733-31",
    "representativeComplex": "신정수정",
    "dataAsOf": "2026-06-21",
    "source": "정보몽땅(cleanup.seoul.go.kr)",
    "transactions": [],
    "geocoded": true
  },